{
  "title": "Χωροθέτηση θέσεων τοποθέτησης κάδων συλλογής βρώσιμων φυτικών ελαίων και λιπών (τηγανελαίων) στις 7 Δημοτικές Κοινότητες του Δήμου Αθηναίων",
  "summary": "Πρόταση για την εγκατάσταση δικτύου **230 ειδικών κάδων** συλλογής τηγανελαίων στις 7 Δημοτικές Κοινότητες του Δήμου Αθηναίων. Σε κάθε θέση θα τοποθετηθούν 1-2 κάδοι. Δείτε τις προτεινόμενες τοποθεσίες στον χάρτη: {REF:dk_1}, {REF:dk_2}, {REF:dk_3}, {REF:dk_4}, {REF:dk_5}, {REF:dk_6}, {REF:dk_7}.",
  "contactEmail": "t.enallaktikis.diax.apovliton@athens.gr",
  "sources": [
    {
      "title": "Εισηγητικό Χωροθέτησης Θέσεων",
      "url": "https://www.cityofathens.gr/wp-content/uploads/2026/02/eisigitiko-chorothetisi-theseon-topothetisis-kadon-syllogis-vrosimon-fytikon-elaion.pdf",
      "description": "Το πλήρες εισηγητικό έγγραφο με τις προτεινόμενες θέσεις ανά Δημοτική Κοινότητα"
    },
    {
      "title": "Δημοσίευση Διαβούλευσης",
      "url": "https://www.cityofathens.gr/diavoyleysi-gia-tin-chorothetisi-these/",
      "description": "Η σελίδα της δημόσιας διαβούλευσης στον ιστότοπο του Δήμου Αθηναίων"
    }
  ],
  "defaultVisibleGeosets": [
    "dk_1",
    "dk_2",
    "dk_3",
    "dk_4",
    "dk_5",
    "dk_6",
    "dk_7"
  ],
  "regulation": [
    {
      "type": "chapter",
      "num": 1,
      "id": "eisigitiko",
      "title": "Εισηγητικό",
      "summary": "Πρόταση της Δ/νσης Καθαριότητας - Ανακύκλωσης για χωροθέτηση 230 θέσεων κάδων συλλογής τηγανελαίων.",
      "articles": [
        {
          "num": 1,
          "id": "nomiko-plaisio",
          "title": "Νομικό Πλαίσιο & Αποφάσεις",
          "summary": "Αποφάσεις Δημοτικών Κοινοτήτων και Δημοτικού Συμβουλίου που αποτελούν τη βάση της πρότασης.",
          "body": "Η πρόταση βασίζεται στις ακόλουθες αποφάσεις:\n\n1. Απόφαση 167/03.02.2025 της **1ης Δημοτικής Κοινότητας** (ΑΔΑ: 9ΠΩ5Ω6Μ-ΠΦΦ)\n2. Απόφαση 23/06.02.2025 της **2ης Δημοτικής Κοινότητας** (ΑΔΑ: 9ΕΓΧΩ6Μ-ΥΥΙ)\n3. Απόφαση 42/18.02.2025 της **3ης Δημοτικής Κοινότητας** (ΑΔΑ: Ψ3ΘΧΩΞΜ-99Γ)\n4. Απόφαση 20/17.02.2025 της **4ης Δημοτικής Κοινότητας** (ΑΔΑ: 91Γ3Ω6Μ-ΧΥΑ)\n5. Απόφαση 22/27.02.2025 της **5ης Δημοτικής Κοινότητας** (ΑΔΑ: 9ΧΛΗΩ6Μ-ΤΨ7)\n6. Απόφαση 30/12.03.2025 της **6ης Δημοτικής Κοινότητας** (ΑΔΑ: 9Θ69Ω6Μ-Δ6Μ)\n7. Απόφαση 22/20.02.2025 της **7ης Δημοτικής Κοινότητας** (ΑΔΑ: ΡΡΤΕΩ6Μ-ΝΜ6)\n8. Απόφαση 92677/08.02.2024 της Εκτιμητικής Επιτροπής (άρθρο 186 παρ. 5 Ν.3463/2006)\n9. Απόφαση 694/25.11.2024 του Δημοτικού Συμβουλίου (ΑΔΑ: ΨΔΖΩ6Μ-43Ω) για τη διεξαγωγή πρόχειρου προφορικού πλειοδοτικού διαγωνισμού\n10. Νόμοι: Ν.4555/2018 «ΚΛΕΙΣΘΕΝΗΣ Ι», Ν.3852/2010 «Καλλικράτης», Ν.5056/2023"
        },
        {
          "num": 2,
          "id": "protasi",
          "title": "Πρόταση Χωροθέτησης",
          "summary": "Πρόταση για εγκατάσταση 230 κάδων τηγανελαίων σε 7 Δημοτικές Κοινότητες.",
          "body": "Η Δ/νση Καθαριότητας – Ανακύκλωσης αποστέλλει προς έγκριση **230 θέσεις** χωροθέτησης κάδων συλλογής βρώσιμων φυτικών ελαίων και λιπών (τηγανελαίων) στις 7 Δημοτικές Κοινότητες.\n\nΗ αρχική απόφαση (694/25.11.2024) προέβλεπε δίκτυο **150 κάδων**. Ωστόσο, για την καλύτερη εξυπηρέτηση και αποφυγή συνεχών τροποποιήσεων, εισηγείται η χωροθέτηση **230 θέσεων**.\n\nΣε κάθε θέση θα τοποθετηθούν **1 έως 2 κάδοι**.\n\nΟι προτεινόμενες θέσεις ανά Δημοτική Κοινότητα:\n- {REF:dk_1}: 38 θέσεις\n- {REF:dk_2}: 27 θέσεις\n- {REF:dk_3}: 23 θέσεις\n- {REF:dk_4}: 31 θέσεις\n- {REF:dk_5}: 30 θέσεις\n- {REF:dk_6}: 25 θέσεις\n- {REF:dk_7}: 36 θέσεις\n\nΗ ροή τηγανελαίων είναι συνεχώς εξελισσόμενη. Αποφεύγεται η ταφή τους σε ΧΥΤΑ, προωθείται η περιβαλλοντική ευαισθητοποίηση, και ο Δήμος εναρμονίζεται με το εγκεκριμένο ΕΣΔΑ και το τοπικό Σχέδιο Διαχείρισης Αποβλήτων."
        },
        {
          "num": 3,
          "id": "diavoulefsi",
          "title": "Όροι Διαβούλευσης",
          "summary": "Χρονικό πλαίσιο και τρόπος υποβολής παρατηρήσεων.",
          "body": "Η διαβούλευση διαρκεί **7 ημέρες** (11-18 Φεβρουαρίου 2026).\n\n**Προθεσμία υποβολής:** Τετάρτη 18 Φεβρουαρίου 2026, ώρα 09:00.\n\n**Τρόποι υποβολής προτάσεων:**\n- **Email:** t.enallaktikis.diax.apovliton@athens.gr\n- **Αυτοπροσώπως:** Δημοτική Επιτροπή, Λιοσίων 22, 6ος Όροφος, τηλ. 210 5277432\n\n**Αρμόδια Υπηρεσία:** Δ/νση Καθαριότητας - Ανακύκλωσης, Τμήμα Εναλλακτικής Διαχείρισης Αποβλήτων, Ιερά Οδός 151, τηλ. 210 3402446\n\nΜετά το πέρας της διαβούλευσης, η Δ/νση Καθαριότητας - Ανακύκλωσης θα επεξεργαστεί τα σχόλια και θα οριστικοποιήσει την πρόταση."
        }
      ]
    },
    {
      "type": "geoset",
      "id": "dk_1",
      "name": "1η Δημοτική Κοινότητα",
      "description": "Θέσεις τοποθέτησης κάδων συλλογής τηγανελαίων στην 1η Δημοτική Κοινότητα (38 θέσεις)",
      "color": "#E63946",
      "geometries": [
        {
          "type": "point",
          "name": "ΣΚΟΥΦΑ 55-57",
          "id": "dk1_01_5557",
          "textualDefinition": "ΣΚΟΥΦΑ 55-57, 1η Δημοτική Κοινότητα, Αθήνα",
          "geojson": {
            "type": "Point",
            "coordinates": [
              23.7377391,
              37.9806191
            ]
          }
        },
        {
          "type": "point",
          "name": "Π. ΙΩΑΚΕΙΜ 42",
          "id": "dk1_02_42",
          "textualDefinition": "Π. ΙΩΑΚΕΙΜ 42, 1η Δημοτική Κοινότητα, Αθήνα",
          "geojson": {
            "type": "Point",
            "coordinates": [
              23.744656,
              37.97792219999999
            ]
          }
        },
        {
          "type": "point",
          "name": "ΠΛΟΥΤΑΡΧΟΥ 13",
          "id": "dk1_03_13",
          "textualDefinition": "ΠΛΟΥΤΑΡΧΟΥ 13, 1η Δημοτική Κοινότητα, Αθήνα",
          "geojson": {
            "type": "Point",
            "coordinates": [
              23.7450757,
              37.97761879999999
            ]
          }
        },
        {
          "type": "point",
          "name": "ΚΑΡΝΕΑΔΟΥ 29 & ΠΛΟΥΤΑΡΧΟΥ",
          "id": "dk1_04_29",
          "textualDefinition": "ΚΑΡΝΕΑΔΟΥ 29 & ΠΛΟΥΤΑΡΧΟΥ, 1η Δημοτική Κοινότητα, Αθήνα",
          "geojson": {
            "type": "Point",
            "coordinates": [
              23.7449649,
              37.9772039
            ]
          }
        },
        {
          "type": "point",
          "name": "ΣΚΟΥΦΑ & ΓΡΙΒΕΩΝ",
          "id": "dk1_05_point",
          "textualDefinition": "ΣΚΟΥΦΑ & ΓΡΙΒΕΩΝ, 1η Δημοτική Κοινότητα, Αθήνα",
          "geojson": {
            "type": "Point",
            "coordinates": [
              23.7367247,
              37.9821836
            ]
          }
        },
        {
          "type": "point",
          "name": "ΣΠΕΥΣΙΠΠΟΥ & ΧΑΡΙΤΟΣ",
          "id": "dk1_06_point",
          "textualDefinition": "ΣΠΕΥΣΙΠΠΟΥ & ΧΑΡΙΤΟΣ, 1η Δημοτική Κοινότητα, Αθήνα",
          "geojson": {
            "type": "Point",
            "coordinates": [
              23.74175,
              37.9783627
            ]
          }
        },
        {
          "type": "point",
          "name": "ΗΡΟΔΟΤΟΥ & ΛΕΒΕΝΤΗ",
          "id": "dk1_07_point",
          "textualDefinition": "ΗΡΟΔΟΤΟΥ & ΛΕΒΕΝΤΗ, 1η Δημοτική Κοινότητα, Αθήνα",
          "geojson": {
            "type": "Point",
            "coordinates": [
              23.7426128,
              37.9758464
            ]
          }
        },
        {
          "type": "point",
          "name": "ΞΕΝΟΚΡΑΤΟΥΣ ΕΝ. 17-19",
          "id": "dk1_08_1719",
          "textualDefinition": "ΞΕΝΟΚΡΑΤΟΥΣ ΕΝ. 17-19, 1η Δημοτική Κοινότητα, Αθήνα",
          "geojson": {
            "type": "Point",
            "coordinates": [
              23.7456902,
              37.9794256
            ]
          }
        },
        {
          "type": "point",
          "name": "ΜΗΤΡΟΠΟΛΕΩΣ 48",
          "id": "dk1_09_48",
          "textualDefinition": "ΜΗΤΡΟΠΟΛΕΩΣ 48, 1η Δημοτική Κοινότητα, Αθήνα",
          "geojson": {
            "type": "Point",
            "coordinates": [
              23.7302805,
              37.9755534
            ]
          }
        },
        {
          "type": "point",
          "name": "ΚΟΛΟΚΟΤΡΩΝΗ & ΒΑΣΙΛΙΚΗΣ",
          "id": "dk1_10_point",
          "textualDefinition": "ΚΟΛΟΚΟΤΡΩΝΗ & ΒΑΣΙΛΙΚΗΣ, 1η Δημοτική Κοινότητα, Αθήνα",
          "geojson": {
            "type": "Point",
            "coordinates": [
              23.7281628,
              37.977424
            ]
          }
        },
        {
          "type": "point",
          "name": "ΑΘΗΝΑΣ 16 (ΜΑΣΟΥΤΗΣ)",
          "id": "dk1_11_16",
          "textualDefinition": "ΑΘΗΝΑΣ 16 (ΜΑΣΟΥΤΗΣ), 1η Δημοτική Κοινότητα, Αθήνα",
          "geojson": {
            "type": "Point",
            "coordinates": [
              23.7265934,
              37.9778612
            ]
          }
        },
        {
          "type": "point",
          "name": "ΑΙΟΛΟΥ & ΑΝΔΡΙΑΝΟΥ",
          "id": "dk1_12_point",
          "textualDefinition": "ΑΙΟΛΟΥ & ΑΝΔΡΙΑΝΟΥ, 1η Δημοτική Κοινότητα, Αθήνα",
          "geojson": {
            "type": "Point",
            "coordinates": [
              23.7213881,
              37.9768778
            ]
          }
        },
        {
          "type": "point",
          "name": "ΠΛ. ΚΑΝΙΓΓΟΣ",
          "id": "dk1_13_point",
          "textualDefinition": "ΠΛ. ΚΑΝΙΓΓΟΣ, 1η Δημοτική Κοινότητα, Αθήνα",
          "geojson": {
            "type": "Point",
            "coordinates": [
              23.7303859,
              37.9846224
            ]
          }
        },
        {
          "type": "point",
          "name": "ΙΠΠΟΚΡΑΤΟΥΣ & ΔΙΔΟΤΟΥ",
          "id": "dk1_14_point",
          "textualDefinition": "ΙΠΠΟΚΡΑΤΟΥΣ & ΔΙΔΟΤΟΥ, 1η Δημοτική Κοινότητα, Αθήνα",
          "geojson": {
            "type": "Point",
            "coordinates": [
              23.7378402,
              37.9817708
            ]
          }
        },
        {
          "type": "point",
          "name": "ΜΠΕΝΑΚΗ & ΒΑΛΤΕΤΣΙΟΥ",
          "id": "dk1_15_point",
          "textualDefinition": "ΜΠΕΝΑΚΗ & ΒΑΛΤΕΤΣΙΟΥ, 1η Δημοτική Κοινότητα, Αθήνα",
          "geojson": {
            "type": "Point",
            "coordinates": [
              23.737521,
              37.9831103
            ]
          }
        },
        {
          "type": "point",
          "name": "ΠΛ. ΚΑΡΑΒΕΛΑ",
          "id": "dk1_16_point",
          "textualDefinition": "ΠΛ. ΚΑΡΑΒΕΛΑ, 1η Δημοτική Κοινότητα, Αθήνα",
          "geojson": null
        },
        {
          "type": "point",
          "name": "ΧΑΤΖ. ΜΕΞΗ & ΣΙΣΙΝΗ",
          "id": "dk1_17_point",
          "textualDefinition": "ΧΑΤΖ. ΜΕΞΗ & ΣΙΣΙΝΗ, 1η Δημοτική Κοινότητα, Αθήνα",
          "geojson": {
            "type": "Point",
            "coordinates": [
              23.7448384,
              38.0188908
            ]
          }
        },
        {
          "type": "point",
          "name": "ΔΙΟΧΑΡΟΥΣ & ΟΥΜΠΛΙΑΝΗΣ",
          "id": "dk1_18_point",
          "textualDefinition": "ΔΙΟΧΑΡΟΥΣ & ΟΥΜΠΛΙΑΝΗΣ, 1η Δημοτική Κοινότητα, Αθήνα",
          "geojson": {
            "type": "Point",
            "coordinates": [
              23.7536819,
              37.9731138
            ]
          }
        },
        {
          "type": "point",
          "name": "ΕΡΜΟΥ & ΑΡΙΩΝΟΣ",
          "id": "dk1_19_point",
          "textualDefinition": "ΕΡΜΟΥ & ΑΡΙΩΝΟΣ, 1η Δημοτική Κοινότητα, Αθήνα",
          "geojson": {
            "type": "Point",
            "coordinates": [
              23.7232056,
              37.97724820000001
            ]
          }
        },
        {
          "type": "point",
          "name": "ΠΛΑΤΕΙΑ ΚΟΥΜΟΥΝΔΟΥΡΟΥ (ΕΝΑΝΤΙ ΕΥΡΙΠΙΔΟΥ)",
          "id": "dk1_20_point",
          "textualDefinition": "ΠΛΑΤΕΙΑ ΚΟΥΜΟΥΝΔΟΥΡΟΥ (ΕΝΑΝΤΙ ΕΥΡΙΠΙΔΟΥ), 1η Δημοτική Κοινότητα, Αθήνα",
          "geojson": {
            "type": "Point",
            "coordinates": [
              23.7297334,
              37.979534
            ]
          }
        },
        {
          "type": "point",
          "name": "ΔΗΛΙΓΙΑΝΝΗ 1-3 (ΕΝΑΝΤΙ ΠΛΑΤΕΙΑΣ ΚΑΡΑΪΣΚΑΚΗ)",
          "id": "dk1_21_13",
          "textualDefinition": "ΔΗΛΙΓΙΑΝΝΗ 1-3 (ΕΝΑΝΤΙ ΠΛΑΤΕΙΑΣ ΚΑΡΑΪΣΚΑΚΗ), 1η Δημοτική Κοινότητα, Αθήνα",
          "geojson": {
            "type": "Point",
            "coordinates": [
              23.7209889,
              37.9855966
            ]
          }
        },
        {
          "type": "point",
          "name": "ΠΛΑΤΩΜΑ WYNDHAM GRAND HOTEL (ΑΧΙΛΛΕΩΣ)",
          "id": "dk1_22_wyndham_grand_hotel",
          "textualDefinition": "ΠΛΑΤΩΜΑ WYNDHAM GRAND HOTEL (ΑΧΙΛΛΕΩΣ), 1η Δημοτική Κοινότητα, Αθήνα",
          "geojson": {
            "type": "Point",
            "coordinates": [
              23.7207184,
              37.9850733
            ]
          }
        },
        {
          "type": "point",
          "name": "ΠΛΑΤΕΙΑ ΗΡΩΩΝ",
          "id": "dk1_23_point",
          "textualDefinition": "ΠΛΑΤΕΙΑ ΗΡΩΩΝ, 1η Δημοτική Κοινότητα, Αθήνα",
          "geojson": {
            "type": "Point",
            "coordinates": [
              23.724838,
              37.978319
            ]
          }
        },
        {
          "type": "point",
          "name": "ΒΕΙΚΟΥ & ΔΡΑΚΟΥ",
          "id": "dk1_24_point",
          "textualDefinition": "ΒΕΙΚΟΥ & ΔΡΑΚΟΥ, 1η Δημοτική Κοινότητα, Αθήνα",
          "geojson": {
            "type": "Point",
            "coordinates": [
              23.7266355,
              37.9647648
            ]
          }
        },
        {
          "type": "point",
          "name": "ΔΗΜΗΤΡΑΚΟΠΟΥΛΟΥ & ΔΡΑΚΟΥ",
          "id": "dk1_25_point",
          "textualDefinition": "ΔΗΜΗΤΡΑΚΟΠΟΥΛΟΥ & ΔΡΑΚΟΥ, 1η Δημοτική Κοινότητα, Αθήνα",
          "geojson": {
            "type": "Point",
            "coordinates": [
              23.7266355,
              37.9647648
            ]
          }
        },
        {
          "type": "point",
          "name": "ΦΑΛΗΡΟΥ & ΔΡΑΚΟΥ",
          "id": "dk1_26_point",
          "textualDefinition": "ΦΑΛΗΡΟΥ & ΔΡΑΚΟΥ, 1η Δημοτική Κοινότητα, Αθήνα",
          "geojson": {
            "type": "Point",
            "coordinates": [
              23.7266355,
              37.9647648
            ]
          }
        },
        {
          "type": "point",
          "name": "ΒΕΙΚΟΥ & ΟΛΥΜΠΙΟΥ",
          "id": "dk1_27_point",
          "textualDefinition": "ΒΕΙΚΟΥ & ΟΛΥΜΠΙΟΥ, 1η Δημοτική Κοινότητα, Αθήνα",
          "geojson": {
            "type": "Point",
            "coordinates": [
              23.7215452,
              37.963477
            ]
          }
        },
        {
          "type": "point",
          "name": "ΔΗΜΗΤΡΑΚΟΠΟΥΛΟΥ & ΟΛΥΜΠΙΟΥ",
          "id": "dk1_28_point",
          "textualDefinition": "ΔΗΜΗΤΡΑΚΟΠΟΥΛΟΥ & ΟΛΥΜΠΙΟΥ, 1η Δημοτική Κοινότητα, Αθήνα",
          "geojson": {
            "type": "Point",
            "coordinates": [
              23.7215452,
              37.963477
            ]
          }
        },
        {
          "type": "point",
          "name": "ΒΕΙΚΟΥ 1",
          "id": "dk1_29_1",
          "textualDefinition": "ΒΕΙΚΟΥ 1, 1η Δημοτική Κοινότητα, Αθήνα",
          "geojson": {
            "type": "Point",
            "coordinates": [
              23.7288137,
              37.9673567
            ]
          }
        },
        {
          "type": "point",
          "name": "ΦΑΡΩΝ & ΑΓΙΟΥ ΠΑΥΛΟΥ",
          "id": "dk1_30_point",
          "textualDefinition": "ΦΑΡΩΝ & ΑΓΙΟΥ ΠΑΥΛΟΥ, 1η Δημοτική Κοινότητα, Αθήνα",
          "geojson": {
            "type": "Point",
            "coordinates": [
              23.7238878,
              37.98877220000001
            ]
          }
        },
        {
          "type": "point",
          "name": "ΑΧΑΡΝΩΝ & ΛΙΟΣΙΩΝ",
          "id": "dk1_31_point",
          "textualDefinition": "ΑΧΑΡΝΩΝ & ΛΙΟΣΙΩΝ, 1η Δημοτική Κοινότητα, Αθήνα",
          "geojson": null
        },
        {
          "type": "point",
          "name": "ΑΧΑΡΝΩΝ & ΑΒΕΡΩΦ",
          "id": "dk1_32_point",
          "textualDefinition": "ΑΧΑΡΝΩΝ & ΑΒΕΡΩΦ, 1η Δημοτική Κοινότητα, Αθήνα",
          "geojson": {
            "type": "Point",
            "coordinates": [
              23.7303082,
              37.988594
            ]
          }
        },
        {
          "type": "point",
          "name": "ΑΧΑΡΝΩΝ 39",
          "id": "dk1_33_39",
          "textualDefinition": "ΑΧΑΡΝΩΝ 39, 1η Δημοτική Κοινότητα, Αθήνα",
          "geojson": {
            "type": "Point",
            "coordinates": [
              23.726759,
              37.9910204
            ]
          }
        },
        {
          "type": "point",
          "name": "ΚΑΡΟΛΟΥ 26",
          "id": "dk1_34_26",
          "textualDefinition": "ΚΑΡΟΛΟΥ 26, 1η Δημοτική Κοινότητα, Αθήνα",
          "geojson": {
            "type": "Point",
            "coordinates": [
              23.7217437,
              37.9861219
            ]
          }
        },
        {
          "type": "point",
          "name": "ΟΔΟΣ ΑΣΚΛΗΠΙΟΥ & ΤΣΙΜΙΣΚΗ",
          "id": "dk1_35_point",
          "textualDefinition": "ΟΔΟΣ ΑΣΚΛΗΠΙΟΥ & ΤΣΙΜΙΣΚΗ, 1η Δημοτική Κοινότητα, Αθήνα",
          "geojson": {
            "type": "Point",
            "coordinates": [
              23.7429687,
              37.9841368
            ]
          }
        },
        {
          "type": "point",
          "name": "ΟΔΟΣ ΔΕΙΝΟΚΡΑΤΟΥΣ (Ν.Ν.Α.)",
          "id": "dk1_36_point",
          "textualDefinition": "ΟΔΟΣ ΔΕΙΝΟΚΡΑΤΟΥΣ (Ν.Ν.Α.), 1η Δημοτική Κοινότητα, Αθήνα",
          "geojson": {
            "type": "Point",
            "coordinates": [
              23.7524599,
              37.9821593
            ]
          }
        },
        {
          "type": "point",
          "name": "ΒΑΣ. ΑΛΕΞΑΝΔΡΟΥ & ΒΡΑΣΙΔΑ",
          "id": "dk1_37_point",
          "textualDefinition": "ΒΑΣ. ΑΛΕΞΑΝΔΡΟΥ & ΒΡΑΣΙΔΑ, 1η Δημοτική Κοινότητα, Αθήνα",
          "geojson": {
            "type": "Point",
            "coordinates": [
              23.750741,
              37.9745993
            ]
          }
        },
        {
          "type": "point",
          "name": "ΜΑΡΑΣΛΗ & ΠΑΤΕΡΑ",
          "id": "dk1_38_point",
          "textualDefinition": "ΜΑΡΑΣΛΗ & ΠΑΤΕΡΑ, 1η Δημοτική Κοινότητα, Αθήνα",
          "geojson": {
            "type": "Point",
            "coordinates": [
              23.746076,
              37.9788767
            ]
          }
        }
      ]
    },
    {
      "type": "geoset",
      "id": "dk_2",
      "name": "2η Δημοτική Κοινότητα",
      "description": "Θέσεις τοποθέτησης κάδων συλλογής τηγανελαίων στην 2η Δημοτική Κοινότητα (27 θέσεις)",
      "color": "#457B9D",
      "geometries": [
        {
          "type": "point",
          "name": "ΒΟΛΤΑΙΡΟΥ & ΝΤΕΚΑΡΤ",
          "id": "dk2_01_point",
          "textualDefinition": "ΒΟΛΤΑΙΡΟΥ & ΝΤΕΚΑΡΤ, 2η Δημοτική Κοινότητα, Αθήνα",
          "geojson": {
            "type": "Point",
            "coordinates": [
              23.7232308,
              37.9600392
            ]
          }
        },
        {
          "type": "point",
          "name": "ΚΑΣΟΜΟΥΛΗ & ΜΑΣΤΡΑΧΑ",
          "id": "dk2_02_point",
          "textualDefinition": "ΚΑΣΟΜΟΥΛΗ & ΜΑΣΤΡΑΧΑ, 2η Δημοτική Κοινότητα, Αθήνα",
          "geojson": {
            "type": "Point",
            "coordinates": [
              23.7297356,
              37.9575258
            ]
          }
        },
        {
          "type": "point",
          "name": "ΚΑΣΟΜΟΥΛΗ 104",
          "id": "dk2_03_104",
          "textualDefinition": "ΚΑΣΟΜΟΥΛΗ 104, 2η Δημοτική Κοινότητα, Αθήνα",
          "geojson": {
            "type": "Point",
            "coordinates": [
              23.7335297,
              37.9569065
            ]
          }
        },
        {
          "type": "point",
          "name": "ΚΑΣΟΜΟΥΛΗ & Ρ. ΠΥΩ",
          "id": "dk2_04_point",
          "textualDefinition": "ΚΑΣΟΜΟΥΛΗ & Ρ. ΠΥΩ, 2η Δημοτική Κοινότητα, Αθήνα",
          "geojson": {
            "type": "Point",
            "coordinates": [
              23.7296019,
              37.957799
            ]
          }
        },
        {
          "type": "point",
          "name": "ΧΕΛΝΤΡΑΙΧ & ΦΡΕΙΔ. ΣΜΙΘ (LIDL)",
          "id": "dk2_05_lidl",
          "textualDefinition": "ΧΕΛΝΤΡΑΙΧ & ΦΡΕΙΔ. ΣΜΙΘ (LIDL), 2η Δημοτική Κοινότητα, Αθήνα",
          "geojson": {
            "type": "Point",
            "coordinates": [
              23.72142,
              37.95671
            ]
          }
        },
        {
          "type": "point",
          "name": "ΑΣΠΡΟΓΕΡΑΚΑ & ΡΟΥΜΠΕΣΗ",
          "id": "dk2_06_point",
          "textualDefinition": "ΑΣΠΡΟΓΕΡΑΚΑ & ΡΟΥΜΠΕΣΗ, 2η Δημοτική Κοινότητα, Αθήνα",
          "geojson": {
            "type": "Point",
            "coordinates": [
              23.7271043,
              37.953516
            ]
          }
        },
        {
          "type": "point",
          "name": "ΦΡΑΝΤΖΗ & ΘΑΡΥΠΟΥ",
          "id": "dk2_07_point",
          "textualDefinition": "ΦΡΑΝΤΖΗ & ΘΑΡΥΠΟΥ, 2η Δημοτική Κοινότητα, Αθήνα",
          "geojson": {
            "type": "Point",
            "coordinates": [
              23.7239454,
              37.9600122
            ]
          }
        },
        {
          "type": "point",
          "name": "ΥΜΗΤΤΟΥ & ΙΦΙΚΡΑΤΟΥΣ",
          "id": "dk2_08_point",
          "textualDefinition": "ΥΜΗΤΤΟΥ & ΙΦΙΚΡΑΤΟΥΣ, 2η Δημοτική Κοινότητα, Αθήνα",
          "geojson": {
            "type": "Point",
            "coordinates": [
              23.749386,
              37.9681359
            ]
          }
        },
        {
          "type": "point",
          "name": "ΠΛ. ΠΛΥΤΑ (ΑΡΥΒΒΟΥ)",
          "id": "dk2_09_point",
          "textualDefinition": "ΠΛ. ΠΛΥΤΑ (ΑΡΥΒΒΟΥ), 2η Δημοτική Κοινότητα, Αθήνα",
          "geojson": {
            "type": "Point",
            "coordinates": [
              23.7463525,
              37.9651493
            ]
          }
        },
        {
          "type": "point",
          "name": "ΠΡΟΦ. ΗΛΙΑΣ",
          "id": "dk2_10_point",
          "textualDefinition": "ΠΡΟΦ. ΗΛΙΑΣ, 2η Δημοτική Κοινότητα, Αθήνα",
          "geojson": {
            "type": "Point",
            "coordinates": [
              23.7535381,
              38.0123173
            ]
          }
        },
        {
          "type": "point",
          "name": "ΥΜΗΤΤΟΥ & ΚΑΦΑΝΤΑΡΗ",
          "id": "dk2_11_point",
          "textualDefinition": "ΥΜΗΤΤΟΥ & ΚΑΦΑΝΤΑΡΗ, 2η Δημοτική Κοινότητα, Αθήνα",
          "geojson": {
            "type": "Point",
            "coordinates": [
              23.7524752,
              37.9691889
            ]
          }
        },
        {
          "type": "point",
          "name": "ΜΕΛΑΝΙΠΠΙΔΟΥ & ΣΑΡΩΓΛΟΥ",
          "id": "dk2_12_point",
          "textualDefinition": "ΜΕΛΑΝΙΠΠΙΔΟΥ & ΣΑΡΩΓΛΟΥ, 2η Δημοτική Κοινότητα, Αθήνα",
          "geojson": {
            "type": "Point",
            "coordinates": [
              23.7275388,
              37.9838096
            ]
          }
        },
        {
          "type": "point",
          "name": "ΑΝΑΠΑΥΣΕΩΣ & ΑΡΔΗΤΤΟΥ",
          "id": "dk2_13_point",
          "textualDefinition": "ΑΝΑΠΑΥΣΕΩΣ & ΑΡΔΗΤΤΟΥ, 2η Δημοτική Κοινότητα, Αθήνα",
          "geojson": {
            "type": "Point",
            "coordinates": [
              23.7336439,
              37.9670397
            ]
          }
        },
        {
          "type": "point",
          "name": "ΠΛ. ΒΑΡΝΑΒΑ & ΜΕΛΙΣΣΟΥ",
          "id": "dk2_14_point",
          "textualDefinition": "ΠΛ. ΒΑΡΝΑΒΑ & ΜΕΛΙΣΣΟΥ, 2η Δημοτική Κοινότητα, Αθήνα",
          "geojson": {
            "type": "Point",
            "coordinates": [
              23.7428345,
              37.9656926
            ]
          }
        },
        {
          "type": "point",
          "name": "ΑΡΧΙΜΗΔΟΥΣ 14",
          "id": "dk2_15_14",
          "textualDefinition": "ΑΡΧΙΜΗΔΟΥΣ 14, 2η Δημοτική Κοινότητα, Αθήνα",
          "geojson": {
            "type": "Point",
            "coordinates": [
              23.7429928,
              37.9676608
            ]
          }
        },
        {
          "type": "point",
          "name": "ΑΜΥΝΤΑ & ΑΡΡΙΑΝΟΥ",
          "id": "dk2_16_point",
          "textualDefinition": "ΑΜΥΝΤΑ & ΑΡΡΙΑΝΟΥ, 2η Δημοτική Κοινότητα, Αθήνα",
          "geojson": {
            "type": "Point",
            "coordinates": [
              23.7434864,
              37.9705265
            ]
          }
        },
        {
          "type": "point",
          "name": "ΙΦΙΚΡΑΤΟΥΣ 7 & ΥΜΗΤΤΟΥ",
          "id": "dk2_17_7",
          "textualDefinition": "ΙΦΙΚΡΑΤΟΥΣ 7 & ΥΜΗΤΤΟΥ, 2η Δημοτική Κοινότητα, Αθήνα",
          "geojson": {
            "type": "Point",
            "coordinates": [
              23.7498327,
              37.9679387
            ]
          }
        },
        {
          "type": "point",
          "name": "ΕΥΤΥΧΙΔΟΥ 32",
          "id": "dk2_18_32",
          "textualDefinition": "ΕΥΤΥΧΙΔΟΥ 32, 2η Δημοτική Κοινότητα, Αθήνα",
          "geojson": {
            "type": "Point",
            "coordinates": [
              23.7474853,
              37.9676339
            ]
          }
        },
        {
          "type": "point",
          "name": "ΒΑΣ. ΑΛΕΞΑΝΔΡΟΥ & ΒΡΑΣΙΔΑ",
          "id": "dk2_19_point",
          "textualDefinition": "ΒΑΣ. ΑΛΕΞΑΝΔΡΟΥ & ΒΡΑΣΙΔΑ, 2η Δημοτική Κοινότητα, Αθήνα",
          "geojson": {
            "type": "Point",
            "coordinates": [
              23.7504049,
              37.97451179999999
            ]
          }
        },
        {
          "type": "point",
          "name": "ΠΛ. ΑΜΦΙΚΡΑΤΟΥΣ",
          "id": "dk2_20_point",
          "textualDefinition": "ΠΛ. ΑΜΦΙΚΡΑΤΟΥΣ, 2η Δημοτική Κοινότητα, Αθήνα",
          "geojson": {
            "type": "Point",
            "coordinates": [
              23.739688,
              37.95801000000001
            ]
          }
        },
        {
          "type": "point",
          "name": "ΥΜΗΤΤΟΥ & ΧΡΕΜΩΝΙΔΟΥ",
          "id": "dk2_21_point",
          "textualDefinition": "ΥΜΗΤΤΟΥ & ΧΡΕΜΩΝΙΔΟΥ, 2η Δημοτική Κοινότητα, Αθήνα",
          "geojson": {
            "type": "Point",
            "coordinates": [
              23.7485193,
              37.96738819999999
            ]
          }
        },
        {
          "type": "point",
          "name": "ΠΛ. ΒΑΡΝΑΒΑ",
          "id": "dk2_22_point",
          "textualDefinition": "ΠΛ. ΒΑΡΝΑΒΑ, 2η Δημοτική Κοινότητα, Αθήνα",
          "geojson": {
            "type": "Point",
            "coordinates": [
              23.7428345,
              37.9656926
            ]
          }
        },
        {
          "type": "point",
          "name": "ΠΛ. ΠΡΟΦ. ΗΛΙΑ",
          "id": "dk2_23_point",
          "textualDefinition": "ΠΛ. ΠΡΟΦ. ΗΛΙΑ, 2η Δημοτική Κοινότητα, Αθήνα",
          "geojson": {
            "type": "Point",
            "coordinates": [
              23.7535381,
              38.0123173
            ]
          }
        },
        {
          "type": "point",
          "name": "ΤΙΜΟΣΘΕΝΟΥΣ & ΣΠΙΝΘΑΡΟΥ",
          "id": "dk2_24_point",
          "textualDefinition": "ΤΙΜΟΣΘΕΝΟΥΣ & ΣΠΙΝΘΑΡΟΥ, 2η Δημοτική Κοινότητα, Αθήνα",
          "geojson": {
            "type": "Point",
            "coordinates": [
              23.7348942,
              37.9601285
            ]
          }
        },
        {
          "type": "point",
          "name": "ΙΠΠΑΡΧΟΥ & ΣΩΣΤΡΑΤΟΥ",
          "id": "dk2_25_point",
          "textualDefinition": "ΙΠΠΑΡΧΟΥ & ΣΩΣΤΡΑΤΟΥ, 2η Δημοτική Κοινότητα, Αθήνα",
          "geojson": {
            "type": "Point",
            "coordinates": [
              23.7292479,
              37.9598994
            ]
          }
        },
        {
          "type": "point",
          "name": "ΒΡΕΣΘΕΝΗΣ & ΙΓΓΛΕΣΗ",
          "id": "dk2_26_point",
          "textualDefinition": "ΒΡΕΣΘΕΝΗΣ & ΙΓΓΛΕΣΗ, 2η Δημοτική Κοινότητα, Αθήνα",
          "geojson": {
            "type": "Point",
            "coordinates": [
              23.7287584,
              37.9647318
            ]
          }
        },
        {
          "type": "point",
          "name": "ΡΗΓΙΛΛΗΣ-ΛΕΣΧΗ ΑΞΙΩΜΑΤΙΚΩΝ",
          "id": "dk2_27_point",
          "textualDefinition": "ΡΗΓΙΛΛΗΣ-ΛΕΣΧΗ ΑΞΙΩΜΑΤΙΚΩΝ, 2η Δημοτική Κοινότητα, Αθήνα",
          "geojson": {
            "type": "Point",
            "coordinates": [
              23.7432052,
              37.9748531
            ]
          }
        }
      ]
    },
    {
      "type": "geoset",
      "id": "dk_3",
      "name": "3η Δημοτική Κοινότητα",
      "description": "Θέσεις τοποθέτησης κάδων συλλογής τηγανελαίων στην 3η Δημοτική Κοινότητα (23 θέσεις)",
      "color": "#2A9D8F",
      "geometries": [
        {
          "type": "point",
          "name": "ΠΕΛΛΗΣ & ΚΟΡΥΤΣΑΣ",
          "id": "dk3_01_point",
          "textualDefinition": "ΠΕΛΛΗΣ & ΚΟΡΥΤΣΑΣ, 3η Δημοτική Κοινότητα, Αθήνα",
          "geojson": {
            "type": "Point",
            "coordinates": [
              23.7126759,
              37.9842853
            ]
          }
        },
        {
          "type": "point",
          "name": "ΜΕΛΕΝΙΚΟΥ & ΠΡΟΦΗΤΟΥ ΔΑΝΙΗΛ",
          "id": "dk3_02_point",
          "textualDefinition": "ΜΕΛΕΝΙΚΟΥ & ΠΡΟΦΗΤΟΥ ΔΑΝΙΗΛ, 3η Δημοτική Κοινότητα, Αθήνα",
          "geojson": {
            "type": "Point",
            "coordinates": [
              23.7122962,
              37.9841703
            ]
          }
        },
        {
          "type": "point",
          "name": "ΑΙΓΑΛΕΩ & ΑΓΙΟΥ ΠΟΛΥΚΑΡΠΟΥ (ΤΡΙΓΩΝΑΚΙ)",
          "id": "dk3_03_point",
          "textualDefinition": "ΑΙΓΑΛΕΩ & ΑΓΙΟΥ ΠΟΛΥΚΑΡΠΟΥ (ΤΡΙΓΩΝΑΚΙ), 3η Δημοτική Κοινότητα, Αθήνα",
          "geojson": {
            "type": "Point",
            "coordinates": [
              23.7057486,
              37.9796869
            ]
          }
        },
        {
          "type": "point",
          "name": "ΠΛΑΤΕΙΑ ΔΟΥΡΟΥΤΗ",
          "id": "dk3_04_point",
          "textualDefinition": "ΠΛΑΤΕΙΑ ΔΟΥΡΟΥΤΗ, 3η Δημοτική Κοινότητα, Αθήνα",
          "geojson": {
            "type": "Point",
            "coordinates": [
              23.7173423,
              37.9861016
            ]
          }
        },
        {
          "type": "point",
          "name": "ΠΛΑΤΑΙΩΝ 51 (MY MARKET)",
          "id": "dk3_05_51_my_market",
          "textualDefinition": "ΠΛΑΤΑΙΩΝ 51 (MY MARKET), 3η Δημοτική Κοινότητα, Αθήνα",
          "geojson": {
            "type": "Point",
            "coordinates": [
              23.7151747,
              37.9825614
            ]
          }
        },
        {
          "type": "point",
          "name": "ΑΓΙΩΝ ΑΣΩΜΑΤΩΝ ΠΛΑΤΕΙΑ (ΔΙΠΛΑ ΣΤΟΥΣ ΒΥΘΙΖΟΜΕΝΟΥΣ)",
          "id": "dk3_06_point",
          "textualDefinition": "ΑΓΙΩΝ ΑΣΩΜΑΤΩΝ ΠΛΑΤΕΙΑ (ΔΙΠΛΑ ΣΤΟΥΣ ΒΥΘΙΖΟΜΕΝΟΥΣ), 3η Δημοτική Κοινότητα, Αθήνα",
          "geojson": {
            "type": "Point",
            "coordinates": [
              23.7203792,
              37.9787656
            ]
          }
        },
        {
          "type": "point",
          "name": "ΠΛΑΤΕΙΑ ΚΕΡΑΜΕΙΚΟΥ",
          "id": "dk3_07_point",
          "textualDefinition": "ΠΛΑΤΕΙΑ ΚΕΡΑΜΕΙΚΟΥ, 3η Δημοτική Κοινότητα, Αθήνα",
          "geojson": {
            "type": "Point",
            "coordinates": [
              23.7237437,
              37.9838465
            ]
          }
        },
        {
          "type": "point",
          "name": "ΣΤΡΑΤΟΝΙΚΗΣ & ΕΛΑΣΙΔΩΝ",
          "id": "dk3_08_point",
          "textualDefinition": "ΣΤΡΑΤΟΝΙΚΗΣ & ΕΛΑΣΙΔΩΝ, 3η Δημοτική Κοινότητα, Αθήνα",
          "geojson": {
            "type": "Point",
            "coordinates": [
              23.7106616,
              37.9762858
            ]
          }
        },
        {
          "type": "point",
          "name": "ΠΛΑΤΕΙΑ ΗΟΥΣ (2 ΚΑΔΟΥΣ)",
          "id": "dk3_09_2",
          "textualDefinition": "ΠΛΑΤΕΙΑ ΗΟΥΣ (2 ΚΑΔΟΥΣ), 3η Δημοτική Κοινότητα, Αθήνα",
          "geojson": {
            "type": "Point",
            "coordinates": [
              23.7095697,
              37.9735819
            ]
          }
        },
        {
          "type": "point",
          "name": "ΠΛΑΤΕΙΑ ΑΓΙΑΣ ΑΙΚΑΤΕΡΙΝΗΣ ΕΠΙ ΤΗΣ ΗΟΥΣ (2 ΚΑΔΟΥΣ)",
          "id": "dk3_10_2",
          "textualDefinition": "ΠΛΑΤΕΙΑ ΑΓΙΑΣ ΑΙΚΑΤΕΡΙΝΗΣ ΕΠΙ ΤΗΣ ΗΟΥΣ (2 ΚΑΔΟΥΣ), 3η Δημοτική Κοινότητα, Αθήνα",
          "geojson": {
            "type": "Point",
            "coordinates": [
              23.7081877,
              37.9698078
            ]
          }
        },
        {
          "type": "point",
          "name": "ΘΕΣΣΑΛΟΝΙΚΗΣ ΣΤΟ ΣΤΑΘΜΟ ΝΕΦΕΛΗΣ 1 (2 ΚΑΔΟΥΣ)",
          "id": "dk3_11_1_2",
          "textualDefinition": "ΘΕΣΣΑΛΟΝΙΚΗΣ ΣΤΟ ΣΤΑΘΜΟ ΝΕΦΕΛΗΣ 1 (2 ΚΑΔΟΥΣ), 3η Δημοτική Κοινότητα, Αθήνα",
          "geojson": {
            "type": "Point",
            "coordinates": [
              23.7085621,
              37.9679776
            ]
          }
        },
        {
          "type": "point",
          "name": "ΠΛΑΤΕΙΑ ΜΕΡΚΟΥΡΗ",
          "id": "dk3_12_point",
          "textualDefinition": "ΠΛΑΤΕΙΑ ΜΕΡΚΟΥΡΗ, 3η Δημοτική Κοινότητα, Αθήνα",
          "geojson": {
            "type": "Point",
            "coordinates": [
              23.7127143,
              37.9674902
            ]
          }
        },
        {
          "type": "point",
          "name": "ΚΑΛΛΙΣΘΕΝΟΥΣ 60",
          "id": "dk3_13_60",
          "textualDefinition": "ΚΑΛΛΙΣΘΕΝΟΥΣ 60, 3η Δημοτική Κοινότητα, Αθήνα",
          "geojson": {
            "type": "Point",
            "coordinates": [
              23.713397,
              37.9687607
            ]
          }
        },
        {
          "type": "point",
          "name": "ΤΡΩΩΝ & ΤΡΙΤΩΝΟΣ",
          "id": "dk3_14_point",
          "textualDefinition": "ΤΡΩΩΝ & ΤΡΙΤΩΝΟΣ, 3η Δημοτική Κοινότητα, Αθήνα",
          "geojson": {
            "type": "Point",
            "coordinates": [
              23.7132946,
              37.96947189999999
            ]
          }
        },
        {
          "type": "point",
          "name": "ΝΗΛΕΩΣ & ΗΡΑΚΛΕΙΔΩΝ",
          "id": "dk3_15_point",
          "textualDefinition": "ΝΗΛΕΩΣ & ΗΡΑΚΛΕΙΔΩΝ, 3η Δημοτική Κοινότητα, Αθήνα",
          "geojson": {
            "type": "Point",
            "coordinates": [
              23.7189813,
              37.9747284
            ]
          }
        },
        {
          "type": "point",
          "name": "ΤΡΙΩΝ ΙΕΡΑΡΧΩΝ ΕΝ 168",
          "id": "dk3_16_168",
          "textualDefinition": "ΤΡΙΩΝ ΙΕΡΑΡΧΩΝ ΕΝ 168, 3η Δημοτική Κοινότητα, Αθήνα",
          "geojson": {
            "type": "Point",
            "coordinates": [
              23.7114881,
              37.9704465
            ]
          }
        },
        {
          "type": "point",
          "name": "ΗΡΑΚΛΕΙΔΩΝ 11-13",
          "id": "dk3_17_1113",
          "textualDefinition": "ΗΡΑΚΛΕΙΔΩΝ 11-13, 3η Δημοτική Κοινότητα, Αθήνα",
          "geojson": {
            "type": "Point",
            "coordinates": [
              23.7177119,
              37.9754317
            ]
          }
        },
        {
          "type": "point",
          "name": "ΕΡΙΣΥΧΘΩΝΟΣ & ΗΡΑΚΛΕΙΔΩΝ",
          "id": "dk3_18_point",
          "textualDefinition": "ΕΡΙΣΥΧΘΩΝΟΣ & ΗΡΑΚΛΕΙΔΩΝ, 3η Δημοτική Κοινότητα, Αθήνα",
          "geojson": {
            "type": "Point",
            "coordinates": [
              23.7185636,
              37.9750425
            ]
          }
        },
        {
          "type": "point",
          "name": "ΑΧΑΙΩΝ & ΚΑΛΛΙΣΘΕΝΟΥΣ",
          "id": "dk3_19_point",
          "textualDefinition": "ΑΧΑΙΩΝ & ΚΑΛΛΙΣΘΕΝΟΥΣ, 3η Δημοτική Κοινότητα, Αθήνα",
          "geojson": {
            "type": "Point",
            "coordinates": [
              23.7159682,
              37.9718801
            ]
          }
        },
        {
          "type": "point",
          "name": "ΛΑΓΚΑΔΑ & ΣΠΥΡΟΥ ΠΑΤΣΗ",
          "id": "dk3_20_point",
          "textualDefinition": "ΛΑΓΚΑΔΑ & ΣΠΥΡΟΥ ΠΑΤΣΗ, 3η Δημοτική Κοινότητα, Αθήνα",
          "geojson": {
            "type": "Point",
            "coordinates": [
              23.7059282,
              37.9772505
            ]
          }
        },
        {
          "type": "point",
          "name": "ΚΑΣΤΟΡΙΑΣ & ΚΑΣΣΑΝΔΡΑΣ",
          "id": "dk3_21_point",
          "textualDefinition": "ΚΑΣΤΟΡΙΑΣ & ΚΑΣΣΑΝΔΡΑΣ, 3η Δημοτική Κοινότητα, Αθήνα",
          "geojson": {
            "type": "Point",
            "coordinates": [
              23.7112747,
              37.9816513
            ]
          }
        },
        {
          "type": "point",
          "name": "ΣΠΥΡΟΥ ΠΑΤΣΗ & ΚΟΡΥΤΣΑΣ",
          "id": "dk3_22_point",
          "textualDefinition": "ΣΠΥΡΟΥ ΠΑΤΣΗ & ΚΟΡΥΤΣΑΣ, 3η Δημοτική Κοινότητα, Αθήνα",
          "geojson": {
            "type": "Point",
            "coordinates": [
              23.7111728,
              37.9859652
            ]
          }
        },
        {
          "type": "point",
          "name": "ΣΕΡΑΦΕΙΟ",
          "id": "dk3_23_point",
          "textualDefinition": "ΣΕΡΑΦΕΙΟ, 3η Δημοτική Κοινότητα, Αθήνα",
          "geojson": {
            "type": "Point",
            "coordinates": [
              23.707162,
              37.9734967
            ]
          }
        }
      ]
    },
    {
      "type": "geoset",
      "id": "dk_4",
      "name": "4η Δημοτική Κοινότητα",
      "description": "Θέσεις τοποθέτησης κάδων συλλογής τηγανελαίων στην 4η Δημοτική Κοινότητα (31 θέσεις)",
      "color": "#E9C46A",
      "geometries": [
        {
          "type": "point",
          "name": "ΙΩΑΝΝΙΝΩΝ & ΔΡΑΜΑΣ",
          "id": "dk4_01_point",
          "textualDefinition": "ΙΩΑΝΝΙΝΩΝ & ΔΡΑΜΑΣ, 4η Δημοτική Κοινότητα, Αθήνα",
          "geojson": {
            "type": "Point",
            "coordinates": [
              23.7121843,
              37.9962809
            ]
          }
        },
        {
          "type": "point",
          "name": "ΛΕΝΟΡΜΑΝ 129 (Σ. ΜΑΡΚΕΤ ΓΑΛΑΞΙΑΣ)",
          "id": "dk4_02_129",
          "textualDefinition": "ΛΕΝΟΡΜΑΝ 129 (Σ. ΜΑΡΚΕΤ ΓΑΛΑΞΙΑΣ), 4η Δημοτική Κοινότητα, Αθήνα",
          "geojson": {
            "type": "Point",
            "coordinates": [
              23.7136841,
              37.9924019
            ]
          }
        },
        {
          "type": "point",
          "name": "ΛΕΝΟΡΜΑΝ 226 (Σ. Μ. ΣΚΛΑΒΕΝΙΤΗΣ)",
          "id": "dk4_03_226",
          "textualDefinition": "ΛΕΝΟΡΜΑΝ 226 (Σ. Μ. ΣΚΛΑΒΕΝΙΤΗΣ), 4η Δημοτική Κοινότητα, Αθήνα",
          "geojson": {
            "type": "Point",
            "coordinates": [
              23.7094281,
              37.9984176
            ]
          }
        },
        {
          "type": "point",
          "name": "ΤΗΛΕΦΑΝΟΥΣ 8",
          "id": "dk4_04_8",
          "textualDefinition": "ΤΗΛΕΦΑΝΟΥΣ 8, 4η Δημοτική Κοινότητα, Αθήνα",
          "geojson": {
            "type": "Point",
            "coordinates": [
              23.7109395,
              37.9958773
            ]
          }
        },
        {
          "type": "point",
          "name": "ΛΕΝΟΡΜΑΝ & ΚΛΕΟΒΙΔΟΣ (ΔΙΠΛΑ ΣΤΟΝ ΚΑΔΟ ΡΟΥΧΩΝ)",
          "id": "dk4_05_point",
          "textualDefinition": "ΛΕΝΟΡΜΑΝ & ΚΛΕΟΒΙΔΟΣ (ΔΙΠΛΑ ΣΤΟΝ ΚΑΔΟ ΡΟΥΧΩΝ), 4η Δημοτική Κοινότητα, Αθήνα",
          "geojson": {
            "type": "Point",
            "coordinates": [
              23.7136841,
              37.9924019
            ]
          }
        },
        {
          "type": "point",
          "name": "ΙΦΙΓΕΝΕΙΑΣ & ΛΕΑΝΔΡΟΥ",
          "id": "dk4_06_point",
          "textualDefinition": "ΙΦΙΓΕΝΕΙΑΣ & ΛΕΑΝΔΡΟΥ, 4η Δημοτική Κοινότητα, Αθήνα",
          "geojson": {
            "type": "Point",
            "coordinates": [
              23.7136841,
              37.9924019
            ]
          }
        },
        {
          "type": "point",
          "name": "ΚΡΕΟΝΤΟΣ & ΕΛΛΗΣΠΟΝΤΟΥ",
          "id": "dk4_07_point",
          "textualDefinition": "ΚΡΕΟΝΤΟΣ & ΕΛΛΗΣΠΟΝΤΟΥ, 4η Δημοτική Κοινότητα, Αθήνα",
          "geojson": {
            "type": "Point",
            "coordinates": [
              23.7199121,
              37.9982435
            ]
          }
        },
        {
          "type": "point",
          "name": "ΑΝΤΙΓΟΝΗΣ 201 & ΚΡΕΟΝΤΟΣ",
          "id": "dk4_08_201",
          "textualDefinition": "ΑΝΤΙΓΟΝΗΣ 201 & ΚΡΕΟΝΤΟΣ, 4η Δημοτική Κοινότητα, Αθήνα",
          "geojson": {
            "type": "Point",
            "coordinates": [
              23.7136841,
              37.9924019
            ]
          }
        },
        {
          "type": "point",
          "name": "ΑΥΛΩΝΟΣ & ΑΘΑΝΑΤΩΝ",
          "id": "dk4_09_point",
          "textualDefinition": "ΑΥΛΩΝΟΣ & ΑΘΑΝΑΤΩΝ, 4η Δημοτική Κοινότητα, Αθήνα",
          "geojson": {
            "type": "Point",
            "coordinates": [
              23.7136841,
              37.9924019
            ]
          }
        },
        {
          "type": "point",
          "name": "ΣΕΠΟΛΙΩΝ ΕΝΑΝΤΙ 76 (ΑΓΙΟΣ ΜΕΛΕΤΗΣ)",
          "id": "dk4_10_76",
          "textualDefinition": "ΣΕΠΟΛΙΩΝ ΕΝΑΝΤΙ 76 (ΑΓΙΟΣ ΜΕΛΕΤΗΣ), 4η Δημοτική Κοινότητα, Αθήνα",
          "geojson": {
            "type": "Point",
            "coordinates": [
              23.7136841,
              37.9924019
            ]
          }
        },
        {
          "type": "point",
          "name": "ΑΥΛΩΝΟΣ ΕΝΑΝΤΙ 142 (Σ. ΜΑΡΚΕΤ ΓΑΛΑΞΙΑΣ)",
          "id": "dk4_11_142",
          "textualDefinition": "ΑΥΛΩΝΟΣ ΕΝΑΝΤΙ 142 (Σ. ΜΑΡΚΕΤ ΓΑΛΑΞΙΑΣ), 4η Δημοτική Κοινότητα, Αθήνα",
          "geojson": {
            "type": "Point",
            "coordinates": [
              23.7136841,
              37.9924019
            ]
          }
        },
        {
          "type": "point",
          "name": "ΔΡΑΜΑΣ & ΠΡΟΠΟΝΤΙΔΟΣ (ΠΛΑΤΕΙΑ ΟΡΘΟΔΟΞΙΑΣ)",
          "id": "dk4_12_point",
          "textualDefinition": "ΔΡΑΜΑΣ & ΠΡΟΠΟΝΤΙΔΟΣ (ΠΛΑΤΕΙΑ ΟΡΘΟΔΟΞΙΑΣ), 4η Δημοτική Κοινότητα, Αθήνα",
          "geojson": {
            "type": "Point",
            "coordinates": [
              23.7136841,
              37.9924019
            ]
          }
        },
        {
          "type": "point",
          "name": "ΠΑΡΑΣΚΕΥΟΠΟΥΛΟΥ & Μ. ΚΟΡΑΚΑ (ΣΧΟΛΕΙΑ)",
          "id": "dk4_13_point",
          "textualDefinition": "ΠΑΡΑΣΚΕΥΟΠΟΥΛΟΥ & Μ. ΚΟΡΑΚΑ (ΣΧΟΛΕΙΑ), 4η Δημοτική Κοινότητα, Αθήνα",
          "geojson": {
            "type": "Point",
            "coordinates": [
              23.7136841,
              37.9924019
            ]
          }
        },
        {
          "type": "point",
          "name": "ΛΙΟΣΙΩΝ 197",
          "id": "dk4_14_197",
          "textualDefinition": "ΛΙΟΣΙΩΝ 197, 4η Δημοτική Κοινότητα, Αθήνα",
          "geojson": {
            "type": "Point",
            "coordinates": [
              23.7219,
              38.0029147
            ]
          }
        },
        {
          "type": "point",
          "name": "ΠΥΡΛΑ & ΠΡΕΤΕΝΤΕΡΗ",
          "id": "dk4_15_point",
          "textualDefinition": "ΠΥΡΛΑ & ΠΡΕΤΕΝΤΕΡΗ, 4η Δημοτική Κοινότητα, Αθήνα",
          "geojson": {
            "type": "Point",
            "coordinates": [
              23.7223223,
              38.0139436
            ]
          }
        },
        {
          "type": "point",
          "name": "ΣΤΡ. ΔΑΓΚΛΗ 81 & ΣΤΡ. ΚΑΛΛΑΡΗ",
          "id": "dk4_16_81",
          "textualDefinition": "ΣΤΡ. ΔΑΓΚΛΗ 81 & ΣΤΡ. ΚΑΛΛΑΡΗ, 4η Δημοτική Κοινότητα, Αθήνα",
          "geojson": {
            "type": "Point",
            "coordinates": [
              23.7136841,
              37.9924019
            ]
          }
        },
        {
          "type": "point",
          "name": "Λ. ΙΩΝΙΑΣ & ΣΕΡΑΦΗ",
          "id": "dk4_17_point",
          "textualDefinition": "Λ. ΙΩΝΙΑΣ & ΣΕΡΑΦΗ, 4η Δημοτική Κοινότητα, Αθήνα",
          "geojson": {
            "type": "Point",
            "coordinates": [
              23.7268537,
              38.006399
            ]
          }
        },
        {
          "type": "point",
          "name": "Λ. ΙΩΝΙΑΣ & ΚΡΙΤΟΒΟΥΛΙΔΟΥ",
          "id": "dk4_18_point",
          "textualDefinition": "Λ. ΙΩΝΙΑΣ & ΚΡΙΤΟΒΟΥΛΙΔΟΥ, 4η Δημοτική Κοινότητα, Αθήνα",
          "geojson": {
            "type": "Point",
            "coordinates": [
              23.7136841,
              37.9924019
            ]
          }
        },
        {
          "type": "point",
          "name": "ΣΕΡΑΦΗ & ΧΟΡΤΑΤΖΗ (ΑΓΙΟΣ ΜΑΡΚΟΣ)",
          "id": "dk4_19_point",
          "textualDefinition": "ΣΕΡΑΦΗ & ΧΟΡΤΑΤΖΗ (ΑΓΙΟΣ ΜΑΡΚΟΣ), 4η Δημοτική Κοινότητα, Αθήνα",
          "geojson": {
            "type": "Point",
            "coordinates": [
              23.72476,
              38.0062246
            ]
          }
        },
        {
          "type": "point",
          "name": "ΔΕΜΕΡΤΖΗ & ΠΑΠΑΝΑΣΤΑΣΙΟΥ (Σ. ΜΑΡΚΕΤ ΑΒ)",
          "id": "dk4_20_point",
          "textualDefinition": "ΔΕΜΕΡΤΖΗ & ΠΑΠΑΝΑΣΤΑΣΙΟΥ (Σ. ΜΑΡΚΕΤ ΑΒ), 4η Δημοτική Κοινότητα, Αθήνα",
          "geojson": {
            "type": "Point",
            "coordinates": [
              23.7277229,
              38.0022348
            ]
          }
        },
        {
          "type": "point",
          "name": "ΠΛΑΤΩΝΟΣ & ΠΑΛΑΜΗΔΙΟΥ",
          "id": "dk4_21_point",
          "textualDefinition": "ΠΛΑΤΩΝΟΣ & ΠΑΛΑΜΗΔΙΟΥ, 4η Δημοτική Κοινότητα, Αθήνα",
          "geojson": {
            "type": "Point",
            "coordinates": [
              23.7175187,
              37.98931450000001
            ]
          }
        },
        {
          "type": "point",
          "name": "ΠΛΑΤΕΙΑ ΑΓΙΟΥ ΓΕΩΡΓΙΟΥ (ΠΛΑΤΩΝΟΣ)",
          "id": "dk4_22_point",
          "textualDefinition": "ΠΛΑΤΕΙΑ ΑΓΙΟΥ ΓΕΩΡΓΙΟΥ (ΠΛΑΤΩΝΟΣ), 4η Δημοτική Κοινότητα, Αθήνα",
          "geojson": {
            "type": "Point",
            "coordinates": [
              23.7145709,
              37.9847936
            ]
          }
        },
        {
          "type": "point",
          "name": "ΤΗΛΕΦΑΝΟΥΣ & ΜΟΝΑΣΤΗΡΙΟΥ (ΨΗΦΙΑΚΟ ΜΟΥΣΕΙΟ)",
          "id": "dk4_23_point",
          "textualDefinition": "ΤΗΛΕΦΑΝΟΥΣ & ΜΟΝΑΣΤΗΡΙΟΥ (ΨΗΦΙΑΚΟ ΜΟΥΣΕΙΟ), 4η Δημοτική Κοινότητα, Αθήνα",
          "geojson": {
            "type": "Point",
            "coordinates": [
              23.7136841,
              37.9924019
            ]
          }
        },
        {
          "type": "point",
          "name": "ΖΗΝΟΔΩΡΟΥ 3 & ΑΜΦΙΑΡΑΟΥ (ΚΙΒΩΤΟΣ)",
          "id": "dk4_24_3",
          "textualDefinition": "ΖΗΝΟΔΩΡΟΥ 3 & ΑΜΦΙΑΡΑΟΥ (ΚΙΒΩΤΟΣ), 4η Δημοτική Κοινότητα, Αθήνα",
          "geojson": {
            "type": "Point",
            "coordinates": [
              23.7136841,
              37.9924019
            ]
          }
        },
        {
          "type": "point",
          "name": "ΑΣΤΡΟΥΣ & ΠΑΛΑΜΗΔΙΟΥ (Σ. ΜΑΡΚΕΤ ΓΑΛΑΞΙΑΣ)",
          "id": "dk4_25_point",
          "textualDefinition": "ΑΣΤΡΟΥΣ & ΠΑΛΑΜΗΔΙΟΥ (Σ. ΜΑΡΚΕΤ ΓΑΛΑΞΙΑΣ), 4η Δημοτική Κοινότητα, Αθήνα",
          "geojson": {
            "type": "Point",
            "coordinates": [
              23.7159069,
              37.9881919
            ]
          }
        },
        {
          "type": "point",
          "name": "ΠΕΖΟΔΡΟΜΟΣ ΚΕΡΑΤΣΙΝΙΟΥ (ΣΧΟΛΕΙΟ)",
          "id": "dk4_26_point",
          "textualDefinition": "ΠΕΖΟΔΡΟΜΟΣ ΚΕΡΑΤΣΙΝΙΟΥ (ΣΧΟΛΕΙΟ), 4η Δημοτική Κοινότητα, Αθήνα",
          "geojson": {
            "type": "Point",
            "coordinates": [
              23.7136841,
              37.9924019
            ]
          }
        },
        {
          "type": "point",
          "name": "ΑΛΕΞΑΝΔΡΕΙΑΣ ΕΝΑΝΤΙ 87 & ΜΑΡΑΘΩΝΟΜΑΧΩΝ (ΑΓΙΟΣ ΤΡΥΦΩΝΑΣ)",
          "id": "dk4_27_87",
          "textualDefinition": "ΑΛΕΞΑΝΔΡΕΙΑΣ ΕΝΑΝΤΙ 87 & ΜΑΡΑΘΩΝΟΜΑΧΩΝ (ΑΓΙΟΣ ΤΡΥΦΩΝΑΣ), 4η Δημοτική Κοινότητα, Αθήνα",
          "geojson": {
            "type": "Point",
            "coordinates": [
              23.7136841,
              37.9924019
            ]
          }
        },
        {
          "type": "point",
          "name": "ΚΑΛΑΜΑ & ΓΡΑΜΜΟΥ",
          "id": "dk4_28_point",
          "textualDefinition": "ΚΑΛΑΜΑ & ΓΡΑΜΜΟΥ, 4η Δημοτική Κοινότητα, Αθήνα",
          "geojson": {
            "type": "Point",
            "coordinates": [
              23.7136841,
              37.9924019
            ]
          }
        },
        {
          "type": "point",
          "name": "ΔΩΔΩΝΗΣ & ΑΘΑΝΑΤΩΝ (SUPER MARKET)",
          "id": "dk4_29_super_market",
          "textualDefinition": "ΔΩΔΩΝΗΣ & ΑΘΑΝΑΤΩΝ (SUPER MARKET), 4η Δημοτική Κοινότητα, Αθήνα",
          "geojson": {
            "type": "Point",
            "coordinates": [
              23.7136841,
              37.9924019
            ]
          }
        },
        {
          "type": "point",
          "name": "ΙΩΝΙΑΣ & ΨΑΡΟΥΔΑΚΗ",
          "id": "dk4_30_point",
          "textualDefinition": "ΙΩΝΙΑΣ & ΨΑΡΟΥΔΑΚΗ, 4η Δημοτική Κοινότητα, Αθήνα",
          "geojson": {
            "type": "Point",
            "coordinates": [
              23.7281989,
              38.01174839999999
            ]
          }
        },
        {
          "type": "point",
          "name": "ΑΣΤΡΟΥΣ & ΑΙΜΩΝΟΣ",
          "id": "dk4_31_point",
          "textualDefinition": "ΑΣΤΡΟΥΣ & ΑΙΜΩΝΟΣ, 4η Δημοτική Κοινότητα, Αθήνα",
          "geojson": {
            "type": "Point",
            "coordinates": [
              23.7136841,
              37.9924019
            ]
          }
        }
      ]
    },
    {
      "type": "geoset",
      "id": "dk_5",
      "name": "5η Δημοτική Κοινότητα",
      "description": "Θέσεις τοποθέτησης κάδων συλλογής τηγανελαίων στην 5η Δημοτική Κοινότητα (30 θέσεις)",
      "color": "#F4A261",
      "geometries": [
        {
          "type": "point",
          "name": "ΑΧΑΡΝΩΝ & ΙΩΝΙΑΣ",
          "id": "dk5_01_point",
          "textualDefinition": "ΑΧΑΡΝΩΝ & ΙΩΝΙΑΣ, 5η Δημοτική Κοινότητα, Αθήνα",
          "geojson": {
            "type": "Point",
            "coordinates": [
              23.7352161,
              37.9960373
            ]
          }
        },
        {
          "type": "point",
          "name": "ΑΧΑΡΝΩΝ & ΒΙΚΕΛΑ",
          "id": "dk5_02_point",
          "textualDefinition": "ΑΧΑΡΝΩΝ & ΒΙΚΕΛΑ, 5η Δημοτική Κοινότητα, Αθήνα",
          "geojson": {
            "type": "Point",
            "coordinates": [
              23.7289379,
              38.0162966
            ]
          }
        },
        {
          "type": "point",
          "name": "ΑΧΑΡΝΩΝ & ΙΑΚΩΒΙΔΟΥ",
          "id": "dk5_03_point",
          "textualDefinition": "ΑΧΑΡΝΩΝ & ΙΑΚΩΒΙΔΟΥ, 5η Δημοτική Κοινότητα, Αθήνα",
          "geojson": {
            "type": "Point",
            "coordinates": [
              23.7347205,
              38.0185968
            ]
          }
        },
        {
          "type": "point",
          "name": "ΧΑΛΚΙΔΟΣ & ΙΩΝΙΑΣ",
          "id": "dk5_04_point",
          "textualDefinition": "ΧΑΛΚΙΔΟΣ & ΙΩΝΙΑΣ, 5η Δημοτική Κοινότητα, Αθήνα",
          "geojson": {
            "type": "Point",
            "coordinates": [
              23.7352469,
              38.0236828
            ]
          }
        },
        {
          "type": "point",
          "name": "ΤΣΟΥΝΤΑ & ΚΟΥΡΤΙΔΟΥ",
          "id": "dk5_05_point",
          "textualDefinition": "ΤΣΟΥΝΤΑ & ΚΟΥΡΤΙΔΟΥ, 5η Δημοτική Κοινότητα, Αθήνα",
          "geojson": {
            "type": "Point",
            "coordinates": [
              23.720497,
              38.013217
            ]
          }
        },
        {
          "type": "point",
          "name": "ΔΟΞΑΡΑ & ΤΥΡΙΝΘΟΣ",
          "id": "dk5_06_point",
          "textualDefinition": "ΔΟΞΑΡΑ & ΤΥΡΙΝΘΟΣ, 5η Δημοτική Κοινότητα, Αθήνα",
          "geojson": {
            "type": "Point",
            "coordinates": [
              23.7330965,
              38.02544779999999
            ]
          }
        },
        {
          "type": "point",
          "name": "ΚΟΥΡΤΙΔΟΥ & ΟΘ. ΣΤΑΘΑΤΟΥ",
          "id": "dk5_07_point",
          "textualDefinition": "ΚΟΥΡΤΙΔΟΥ & ΟΘ. ΣΤΑΘΑΤΟΥ, 5η Δημοτική Κοινότητα, Αθήνα",
          "geojson": {
            "type": "Point",
            "coordinates": [
              23.7243359,
              38.0319836
            ]
          }
        },
        {
          "type": "point",
          "name": "ΣΙΒΟΡΩΝ ΕΝ 91",
          "id": "dk5_08_91",
          "textualDefinition": "ΣΙΒΟΡΩΝ ΕΝ 91, 5η Δημοτική Κοινότητα, Αθήνα",
          "geojson": {
            "type": "Point",
            "coordinates": [
              23.7473122,
              38.0247067
            ]
          }
        },
        {
          "type": "point",
          "name": "ΜΑΡΚΟΡΑ 24-26",
          "id": "dk5_09_2426",
          "textualDefinition": "ΜΑΡΚΟΡΑ 24-26, 5η Δημοτική Κοινότητα, Αθήνα",
          "geojson": {
            "type": "Point",
            "coordinates": [
              23.7414057,
              38.0168693
            ]
          }
        },
        {
          "type": "point",
          "name": "ΚΑΛΟΣΓΟΥΡΟΥ & ΠΛΑΤΕΙΑ ΠΑΠΑΔΙΑΜΑΝΤΗ",
          "id": "dk5_10_point",
          "textualDefinition": "ΚΑΛΟΣΓΟΥΡΟΥ & ΠΛΑΤΕΙΑ ΠΑΠΑΔΙΑΜΑΝΤΗ, 5η Δημοτική Κοινότητα, Αθήνα",
          "geojson": {
            "type": "Point",
            "coordinates": [
              23.7403603,
              38.0205914
            ]
          }
        },
        {
          "type": "point",
          "name": "ΑΜΥΚΛΩΝ 7",
          "id": "dk5_11_7",
          "textualDefinition": "ΑΜΥΚΛΩΝ 7, 5η Δημοτική Κοινότητα, Αθήνα",
          "geojson": {
            "type": "Point",
            "coordinates": [
              23.7460264,
              38.022255
            ]
          }
        },
        {
          "type": "point",
          "name": "ΓΕΩΡΓΟΥΛΙΑ 10-12",
          "id": "dk5_12_1012",
          "textualDefinition": "ΓΕΩΡΓΟΥΛΙΑ 10-12, 5η Δημοτική Κοινότητα, Αθήνα",
          "geojson": {
            "type": "Point",
            "coordinates": [
              23.7459219,
              38.0213892
            ]
          }
        },
        {
          "type": "point",
          "name": "ΚΡΩΜΝΗΣ 2-4",
          "id": "dk5_13_24",
          "textualDefinition": "ΚΡΩΜΝΗΣ 2-4, 5η Δημοτική Κοινότητα, Αθήνα",
          "geojson": {
            "type": "Point",
            "coordinates": [
              23.7449458,
              38.0270669
            ]
          }
        },
        {
          "type": "point",
          "name": "ΑΓΙΑΣ ΛΑΥΡΑΣ 13-15",
          "id": "dk5_14_1315",
          "textualDefinition": "ΑΓΙΑΣ ΛΑΥΡΑΣ 13-15, 5η Δημοτική Κοινότητα, Αθήνα",
          "geojson": {
            "type": "Point",
            "coordinates": [
              23.7393297,
              38.0167679
            ]
          }
        },
        {
          "type": "point",
          "name": "ΠΑΤΗΣΙΩΝ 240",
          "id": "dk5_15_240",
          "textualDefinition": "ΠΑΤΗΣΙΩΝ 240, 5η Δημοτική Κοινότητα, Αθήνα",
          "geojson": {
            "type": "Point",
            "coordinates": [
              23.7352673,
              38.0084046
            ]
          }
        },
        {
          "type": "point",
          "name": "ΠΑΤΗΣΙΩΝ 340",
          "id": "dk5_16_340",
          "textualDefinition": "ΠΑΤΗΣΙΩΝ 340, 5η Δημοτική Κοινότητα, Αθήνα",
          "geojson": {
            "type": "Point",
            "coordinates": [
              23.7356415,
              38.0184386
            ]
          }
        },
        {
          "type": "point",
          "name": "ΠΑΤΗΣΙΩΝ 380",
          "id": "dk5_17_380",
          "textualDefinition": "ΠΑΤΗΣΙΩΝ 380, 5η Δημοτική Κοινότητα, Αθήνα",
          "geojson": {
            "type": "Point",
            "coordinates": [
              23.7361624,
              38.0227811
            ]
          }
        },
        {
          "type": "point",
          "name": "Λ. ΗΡΑΚΛΕΙΟΥ 32",
          "id": "dk5_18_32",
          "textualDefinition": "Λ. ΗΡΑΚΛΕΙΟΥ 32, 5η Δημοτική Κοινότητα, Αθήνα",
          "geojson": {
            "type": "Point",
            "coordinates": [
              23.7371866,
              38.0199394
            ]
          }
        },
        {
          "type": "point",
          "name": "ΑΓΙΟΥ ΛΟΥΚΑ 41",
          "id": "dk5_19_41",
          "textualDefinition": "ΑΓΙΟΥ ΛΟΥΚΑ 41, 5η Δημοτική Κοινότητα, Αθήνα",
          "geojson": {
            "type": "Point",
            "coordinates": [
              23.7344407,
              38.0135567
            ]
          }
        },
        {
          "type": "point",
          "name": "ΙΑΚΩΒΑΤΩΝ 11",
          "id": "dk5_20_11",
          "textualDefinition": "ΙΑΚΩΒΑΤΩΝ 11, 5η Δημοτική Κοινότητα, Αθήνα",
          "geojson": {
            "type": "Point",
            "coordinates": [
              23.734259,
              38.0143692
            ]
          }
        },
        {
          "type": "point",
          "name": "ΙΑΚΩΒΑΤΩΝ & Φ. ΠΟΛΙΤΗ",
          "id": "dk5_21_point",
          "textualDefinition": "ΙΑΚΩΒΑΤΩΝ & Φ. ΠΟΛΙΤΗ, 5η Δημοτική Κοινότητα, Αθήνα",
          "geojson": {
            "type": "Point",
            "coordinates": [
              23.7323279,
              38.0145479
            ]
          }
        },
        {
          "type": "point",
          "name": "ΝΙΚΟΠΟΛΕΩΣ 32",
          "id": "dk5_22_32",
          "textualDefinition": "ΝΙΚΟΠΟΛΕΩΣ 32, 5η Δημοτική Κοινότητα, Αθήνα",
          "geojson": {
            "type": "Point",
            "coordinates": [
              23.7325017,
              38.0089373
            ]
          }
        },
        {
          "type": "point",
          "name": "ΧΡ. ΣΜΥΡΝΗΣ & Λ. ΙΩΝΙΑΣ",
          "id": "dk5_23_point",
          "textualDefinition": "ΧΡ. ΣΜΥΡΝΗΣ & Λ. ΙΩΝΙΑΣ, 5η Δημοτική Κοινότητα, Αθήνα",
          "geojson": null
        },
        {
          "type": "point",
          "name": "ΠΑΤΗΣΙΩΝ 347",
          "id": "dk5_24_347",
          "textualDefinition": "ΠΑΤΗΣΙΩΝ 347, 5η Δημοτική Κοινότητα, Αθήνα",
          "geojson": {
            "type": "Point",
            "coordinates": [
              23.7357087,
              38.0225939
            ]
          }
        },
        {
          "type": "point",
          "name": "ΠΑΤΗΣΙΩΝ 316",
          "id": "dk5_25_316",
          "textualDefinition": "ΠΑΤΗΣΙΩΝ 316, 5η Δημοτική Κοινότητα, Αθήνα",
          "geojson": {
            "type": "Point",
            "coordinates": [
              23.7355639,
              38.0163767
            ]
          }
        },
        {
          "type": "point",
          "name": "ΠΑΤΗΣΙΩΝ 354",
          "id": "dk5_26_354",
          "textualDefinition": "ΠΑΤΗΣΙΩΝ 354, 5η Δημοτική Κοινότητα, Αθήνα",
          "geojson": {
            "type": "Point",
            "coordinates": [
              23.7357867,
              38.0200289
            ]
          }
        },
        {
          "type": "point",
          "name": "ΠΑΤΗΣΙΩΝ 351",
          "id": "dk5_27_351",
          "textualDefinition": "ΠΑΤΗΣΙΩΝ 351, 5η Δημοτική Κοινότητα, Αθήνα",
          "geojson": {
            "type": "Point",
            "coordinates": [
              23.7357388,
              38.0231138
            ]
          }
        },
        {
          "type": "point",
          "name": "ΠΑΤΗΣΙΩΝ 339",
          "id": "dk5_28_339",
          "textualDefinition": "ΠΑΤΗΣΙΩΝ 339, 5η Δημοτική Κοινότητα, Αθήνα",
          "geojson": {
            "type": "Point",
            "coordinates": [
              23.7349548,
              38.0208859
            ]
          }
        },
        {
          "type": "point",
          "name": "ΑΧΑΡΝΩΝ 421-423",
          "id": "dk5_29_421423",
          "textualDefinition": "ΑΧΑΡΝΩΝ 421-423, 5η Δημοτική Κοινότητα, Αθήνα",
          "geojson": {
            "type": "Point",
            "coordinates": [
              23.730251,
              38.0231825
            ]
          }
        },
        {
          "type": "point",
          "name": "ΤΡΑΛΛΕΩΝ 74",
          "id": "dk5_30_74",
          "textualDefinition": "ΤΡΑΛΛΕΩΝ 74, 5η Δημοτική Κοινότητα, Αθήνα",
          "geojson": {
            "type": "Point",
            "coordinates": [
              23.7478847,
              38.0221047
            ]
          }
        }
      ]
    },
    {
      "type": "geoset",
      "id": "dk_6",
      "name": "6η Δημοτική Κοινότητα",
      "description": "Θέσεις τοποθέτησης κάδων συλλογής τηγανελαίων στην 6η Δημοτική Κοινότητα (25 θέσεις)",
      "color": "#264653",
      "geometries": [
        {
          "type": "point",
          "name": "ΑΧΑΡΝΩΝ & ΑΓΙΟΥ ΝΙΚΟΛΑΟΥ",
          "id": "dk6_01_point",
          "textualDefinition": "ΑΧΑΡΝΩΝ & ΑΓΙΟΥ ΝΙΚΟΛΑΟΥ, 6η Δημοτική Κοινότητα, Αθήνα",
          "geojson": {
            "type": "Point",
            "coordinates": [
              23.728967,
              38.0078726
            ]
          }
        },
        {
          "type": "point",
          "name": "ΠΛΑΤΕΙΑ ΑΜΕΡΙΚΗΣ",
          "id": "dk6_02_point",
          "textualDefinition": "ΠΛΑΤΕΙΑ ΑΜΕΡΙΚΗΣ, 6η Δημοτική Κοινότητα, Αθήνα",
          "geojson": {
            "type": "Point",
            "coordinates": [
              23.7334198,
              38.0024285
            ]
          }
        },
        {
          "type": "point",
          "name": "ΠΛΑΤΕΙΑ ΚΑΜΠΑΝΗ 1",
          "id": "dk6_03_1",
          "textualDefinition": "ΠΛΑΤΕΙΑ ΚΑΜΠΑΝΗ 1, 6η Δημοτική Κοινότητα, Αθήνα",
          "geojson": {
            "type": "Point",
            "coordinates": [
              23.7280608,
              38.0008579
            ]
          }
        },
        {
          "type": "point",
          "name": "ΑΧΑΡΝΩΝ 167",
          "id": "dk6_04_167",
          "textualDefinition": "ΑΧΑΡΝΩΝ 167, 6η Δημοτική Κοινότητα, Αθήνα",
          "geojson": {
            "type": "Point",
            "coordinates": [
              23.7274837,
              38.0012433
            ]
          }
        },
        {
          "type": "point",
          "name": "ΠΛΑΤΕΙΑ ΑΤΤΙΚΗΣ",
          "id": "dk6_05_point",
          "textualDefinition": "ΠΛΑΤΕΙΑ ΑΤΤΙΚΗΣ, 6η Δημοτική Κοινότητα, Αθήνα",
          "geojson": {
            "type": "Point",
            "coordinates": [
              23.7227139,
              37.9962991
            ]
          }
        },
        {
          "type": "point",
          "name": "ΠΛΑΤΕΙΑ ΒΙΚΤΩΡΙΑΣ",
          "id": "dk6_06_point",
          "textualDefinition": "ΠΛΑΤΕΙΑ ΒΙΚΤΩΡΙΑΣ, 6η Δημοτική Κοινότητα, Αθήνα",
          "geojson": {
            "type": "Point",
            "coordinates": [
              23.7299698,
              37.9934829
            ]
          }
        },
        {
          "type": "point",
          "name": "ΑΓΙΟΣ ΠΑΝΤΕΛΕΗΜΟΝΑΣ",
          "id": "dk6_07_point",
          "textualDefinition": "ΑΓΙΟΣ ΠΑΝΤΕΛΕΗΜΟΝΑΣ, 6η Δημοτική Κοινότητα, Αθήνα",
          "geojson": {
            "type": "Point",
            "coordinates": [
              23.7260577,
              37.99688829999999
            ]
          }
        },
        {
          "type": "point",
          "name": "ΦΩΚΙΩΝΟΣ ΝΕΓΡΗ & ΣΚΥΡΟΥ",
          "id": "dk6_08_point",
          "textualDefinition": "ΦΩΚΙΩΝΟΣ ΝΕΓΡΗ & ΣΚΥΡΟΥ, 6η Δημοτική Κοινότητα, Αθήνα",
          "geojson": {
            "type": "Point",
            "coordinates": [
              23.7402637,
              38.0009367
            ]
          }
        },
        {
          "type": "point",
          "name": "ΦΩΚΙΩΝΟΣ ΝΕΓΡΗ & ΕΠΤΑΝΗΣΟΥ",
          "id": "dk6_09_point",
          "textualDefinition": "ΦΩΚΙΩΝΟΣ ΝΕΓΡΗ & ΕΠΤΑΝΗΣΟΥ, 6η Δημοτική Κοινότητα, Αθήνα",
          "geojson": {
            "type": "Point",
            "coordinates": [
              23.7352969,
              37.996861
            ]
          }
        },
        {
          "type": "point",
          "name": "ΙΘΑΚΗΣ 10",
          "id": "dk6_10_10",
          "textualDefinition": "ΙΘΑΚΗΣ 10, 6η Δημοτική Κοινότητα, Αθήνα",
          "geojson": {
            "type": "Point",
            "coordinates": [
              23.7361418,
              37.9976425
            ]
          }
        },
        {
          "type": "point",
          "name": "ΔΟΙΡΑΝΗΣ 1 & ΕΥΕΛΠΙΔΩΝ",
          "id": "dk6_11_1",
          "textualDefinition": "ΔΟΙΡΑΝΗΣ 1 & ΕΥΕΛΠΙΔΩΝ, 6η Δημοτική Κοινότητα, Αθήνα",
          "geojson": {
            "type": "Point",
            "coordinates": [
              23.7391564,
              37.9957353
            ]
          }
        },
        {
          "type": "point",
          "name": "ΚΥΨΕΛΗΣ & ΖΑΚΥΝΘΟΥ",
          "id": "dk6_12_point",
          "textualDefinition": "ΚΥΨΕΛΗΣ & ΖΑΚΥΝΘΟΥ, 6η Δημοτική Κοινότητα, Αθήνα",
          "geojson": {
            "type": "Point",
            "coordinates": [
              23.7352161,
              37.9960373
            ]
          }
        },
        {
          "type": "point",
          "name": "ΔΡΟΣΟΠΟΥΛΟΥ & ΦΩΚΙΩΝΟΣ ΝΕΓΡΗ",
          "id": "dk6_13_point",
          "textualDefinition": "ΔΡΟΣΟΠΟΥΛΟΥ & ΦΩΚΙΩΝΟΣ ΝΕΓΡΗ, 6η Δημοτική Κοινότητα, Αθήνα",
          "geojson": {
            "type": "Point",
            "coordinates": [
              23.7343092,
              38.0003671
            ]
          }
        },
        {
          "type": "point",
          "name": "ΚΑΥΚΑΣΟΥ & ΚΡΙΣΣΗΣ",
          "id": "dk6_14_point",
          "textualDefinition": "ΚΑΥΚΑΣΟΥ & ΚΡΙΣΣΗΣ, 6η Δημοτική Κοινότητα, Αθήνα",
          "geojson": {
            "type": "Point",
            "coordinates": [
              23.7422838,
              38.0032822
            ]
          }
        },
        {
          "type": "point",
          "name": "ΑΜΟΡΓΟΥ & ΑΓΙΑΣ ΖΩΝΗΣ",
          "id": "dk6_15_point",
          "textualDefinition": "ΑΜΟΡΓΟΥ & ΑΓΙΑΣ ΖΩΝΗΣ, 6η Δημοτική Κοινότητα, Αθήνα",
          "geojson": {
            "type": "Point",
            "coordinates": [
              23.7355973,
              38.0081494
            ]
          }
        },
        {
          "type": "point",
          "name": "ΜΗΘΥΜΝΗΣ & ΑΓΙΑΣ ΖΩΝΗΣ",
          "id": "dk6_16_point",
          "textualDefinition": "ΜΗΘΥΜΝΗΣ & ΑΓΙΑΣ ΖΩΝΗΣ, 6η Δημοτική Κοινότητα, Αθήνα",
          "geojson": {
            "type": "Point",
            "coordinates": [
              23.7367397,
              38.0016405
            ]
          }
        },
        {
          "type": "point",
          "name": "ΚΑΛΛΙΦΡΟΝΑ & ΑΓΙΑΣ ΖΩΝΗΣ",
          "id": "dk6_17_point",
          "textualDefinition": "ΚΑΛΛΙΦΡΟΝΑ & ΑΓΙΑΣ ΖΩΝΗΣ, 6η Δημοτική Κοινότητα, Αθήνα",
          "geojson": {
            "type": "Point",
            "coordinates": [
              23.7373496,
              38.0015161
            ]
          }
        },
        {
          "type": "point",
          "name": "ΤΖΟΥΜΑΓΙΑΣ ΕΝΑΝΤΙ 15",
          "id": "dk6_18_15",
          "textualDefinition": "ΤΖΟΥΜΑΓΙΑΣ ΕΝΑΝΤΙ 15, 6η Δημοτική Κοινότητα, Αθήνα",
          "geojson": {
            "type": "Point",
            "coordinates": [
              23.7474837,
              37.9980788
            ]
          }
        },
        {
          "type": "point",
          "name": "ΚΥΨΕΛΗΣ & ΡΗΝΕΙΑΣ",
          "id": "dk6_19_point",
          "textualDefinition": "ΚΥΨΕΛΗΣ & ΡΗΝΕΙΑΣ, 6η Δημοτική Κοινότητα, Αθήνα",
          "geojson": {
            "type": "Point",
            "coordinates": [
              23.7392089,
              37.9985019
            ]
          }
        },
        {
          "type": "point",
          "name": "ΑΧΑΡΝΩΝ 203",
          "id": "dk6_20_203",
          "textualDefinition": "ΑΧΑΡΝΩΝ 203, 6η Δημοτική Κοινότητα, Αθήνα",
          "geojson": {
            "type": "Point",
            "coordinates": [
              23.7281925,
              38.0037088
            ]
          }
        },
        {
          "type": "point",
          "name": "ΦΩΚΙΩΝΟΣ ΝΕΓΡΗ & ΠΛ. ΚΥΨΕΛΗΣ",
          "id": "dk6_21_point",
          "textualDefinition": "ΦΩΚΙΩΝΟΣ ΝΕΓΡΗ & ΠΛ. ΚΥΨΕΛΗΣ, 6η Δημοτική Κοινότητα, Αθήνα",
          "geojson": {
            "type": "Point",
            "coordinates": [
              23.7343092,
              38.0003671
            ]
          }
        },
        {
          "type": "point",
          "name": "ΑΧΑΡΝΩΝ & ΛΑΡΝΑΚΟΣ",
          "id": "dk6_22_point",
          "textualDefinition": "ΑΧΑΡΝΩΝ & ΛΑΡΝΑΚΟΣ, 6η Δημοτική Κοινότητα, Αθήνα",
          "geojson": {
            "type": "Point",
            "coordinates": [
              23.7299216,
              38.0048845
            ]
          }
        },
        {
          "type": "point",
          "name": "ΒΕΛΒΕΝΔΟΥ & ΠΛ. ΚΥΨΕΛΗΣ",
          "id": "dk6_23_point",
          "textualDefinition": "ΒΕΛΒΕΝΔΟΥ & ΠΛ. ΚΥΨΕΛΗΣ, 6η Δημοτική Κοινότητα, Αθήνα",
          "geojson": {
            "type": "Point",
            "coordinates": [
              23.7433226,
              38.0026927
            ]
          }
        },
        {
          "type": "point",
          "name": "ΑΧΑΡΝΩΝ 320",
          "id": "dk6_24_320",
          "textualDefinition": "ΑΧΑΡΝΩΝ 320, 6η Δημοτική Κοινότητα, Αθήνα",
          "geojson": {
            "type": "Point",
            "coordinates": [
              23.729329,
              38.0110297
            ]
          }
        },
        {
          "type": "point",
          "name": "ΑΧΑΡΝΩΝ & ΚΥΜΗΣ",
          "id": "dk6_25_point",
          "textualDefinition": "ΑΧΑΡΝΩΝ & ΚΥΜΗΣ, 6η Δημοτική Κοινότητα, Αθήνα",
          "geojson": {
            "type": "Point",
            "coordinates": [
              23.7268276,
              38.0005904
            ]
          }
        }
      ]
    },
    {
      "type": "geoset",
      "id": "dk_7",
      "name": "7η Δημοτική Κοινότητα",
      "description": "Θέσεις τοποθέτησης κάδων συλλογής τηγανελαίων στην 7η Δημοτική Κοινότητα (36 θέσεις)",
      "color": "#6A4C93",
      "geometries": [
        {
          "type": "point",
          "name": "ΠΛΑΤΕΙΑ ΓΚΥΖΗ & ΛΙΑΚΑΤΑΙΩΝ",
          "id": "dk7_01_point",
          "textualDefinition": "ΠΛΑΤΕΙΑ ΓΚΥΖΗ & ΛΙΑΚΑΤΑΙΩΝ, 7η Δημοτική Κοινότητα, Αθήνα",
          "geojson": {
            "type": "Point",
            "coordinates": [
              23.7462941,
              37.9943918
            ]
          }
        },
        {
          "type": "point",
          "name": "ΔΗΜΗΤΣΑΝΑΣ & ΚΟΡΩΝΙΑΣ",
          "id": "dk7_02_point",
          "textualDefinition": "ΔΗΜΗΤΣΑΝΑΣ & ΚΟΡΩΝΙΑΣ, 7η Δημοτική Κοινότητα, Αθήνα",
          "geojson": {
            "type": "Point",
            "coordinates": [
              23.7560502,
              37.9894542
            ]
          }
        },
        {
          "type": "point",
          "name": "Λ. ΑΛΕΞΑΝΔΡΑΣ & ΣΟΥΤΣΟΥ",
          "id": "dk7_03_point",
          "textualDefinition": "Λ. ΑΛΕΞΑΝΔΡΑΣ & ΣΟΥΤΣΟΥ, 7η Δημοτική Κοινότητα, Αθήνα",
          "geojson": {
            "type": "Point",
            "coordinates": [
              23.7438731,
              37.9903127
            ]
          }
        },
        {
          "type": "point",
          "name": "ΒΑΛΤΙΝΩΝ & ΚΑΛΛΙΓΑ",
          "id": "dk7_04_point",
          "textualDefinition": "ΒΑΛΤΙΝΩΝ & ΚΑΛΛΙΓΑ, 7η Δημοτική Κοινότητα, Αθήνα",
          "geojson": {
            "type": "Point",
            "coordinates": [
              23.7432351,
              37.9904545
            ]
          }
        },
        {
          "type": "point",
          "name": "ΛΟΥΚΑΡΕΩΣ & ΚΑΛΒΟΥ",
          "id": "dk7_05_point",
          "textualDefinition": "ΛΟΥΚΑΡΕΩΣ & ΚΑΛΒΟΥ, 7η Δημοτική Κοινότητα, Αθήνα",
          "geojson": {
            "type": "Point",
            "coordinates": [
              23.7428008,
              37.9927858
            ]
          }
        },
        {
          "type": "point",
          "name": "ΜΗΤΡΟΠΕΤΡΟΒΑ ΕΝΑΝΤΙ 38-42",
          "id": "dk7_06_3842",
          "textualDefinition": "ΜΗΤΡΟΠΕΤΡΟΒΑ ΕΝΑΝΤΙ 38-42, 7η Δημοτική Κοινότητα, Αθήνα",
          "geojson": {
            "type": "Point",
            "coordinates": [
              23.7565359,
              37.9976919
            ]
          }
        },
        {
          "type": "point",
          "name": "ΒΑΦΕΙΟΔΩΡΙΟΥ & ΒΙΘΥΝΙΑΣ",
          "id": "dk7_07_point",
          "textualDefinition": "ΒΑΦΕΙΟΔΩΡΙΟΥ & ΒΙΘΥΝΙΑΣ, 7η Δημοτική Κοινότητα, Αθήνα",
          "geojson": {
            "type": "Point",
            "coordinates": [
              23.749203,
              37.9986365
            ]
          }
        },
        {
          "type": "point",
          "name": "ΒΕΡΝΑΡΔΑΚΗ & ΣΟΛΙΩΤΗ",
          "id": "dk7_08_point",
          "textualDefinition": "ΒΕΡΝΑΡΔΑΚΗ & ΣΟΛΙΩΤΗ, 7η Δημοτική Κοινότητα, Αθήνα",
          "geojson": {
            "type": "Point",
            "coordinates": [
              23.7539521,
              37.9924463
            ]
          }
        },
        {
          "type": "point",
          "name": "ΤΡΙΓΩΝΟ ΠΑΜΟΡΜΟΥ & ΡΙΑΝΚΟΥΡ",
          "id": "dk7_09_point",
          "textualDefinition": "ΤΡΙΓΩΝΟ ΠΑΜΟΡΜΟΥ & ΡΙΑΝΚΟΥΡ, 7η Δημοτική Κοινότητα, Αθήνα",
          "geojson": {
            "type": "Point",
            "coordinates": [
              23.7594334,
              37.9896761
            ]
          }
        },
        {
          "type": "point",
          "name": "ΠΛΑΤΕΙΑ ΑΓ. ΔΗΜΗΤΡΙΟΥ",
          "id": "dk7_10_point",
          "textualDefinition": "ΠΛΑΤΕΙΑ ΑΓ. ΔΗΜΗΤΡΙΟΥ, 7η Δημοτική Κοινότητα, Αθήνα",
          "geojson": {
            "type": "Point",
            "coordinates": [
              23.7590963,
              37.9891881
            ]
          }
        },
        {
          "type": "point",
          "name": "ΠΛΑΤΕΙΑ ΧΑΙΡΟΠΟΥΛΟΥ",
          "id": "dk7_11_point",
          "textualDefinition": "ΠΛΑΤΕΙΑ ΧΑΙΡΟΠΟΥΛΟΥ, 7η Δημοτική Κοινότητα, Αθήνα",
          "geojson": {
            "type": "Point",
            "coordinates": [
              23.7633758,
              37.994509
            ]
          }
        },
        {
          "type": "point",
          "name": "ΠΛΑΤΕΙΑ ΕΠΩΝ",
          "id": "dk7_12_point",
          "textualDefinition": "ΠΛΑΤΕΙΑ ΕΠΩΝ, 7η Δημοτική Κοινότητα, Αθήνα",
          "geojson": {
            "type": "Point",
            "coordinates": [
              23.7493807,
              38.0255504
            ]
          }
        },
        {
          "type": "point",
          "name": "ΠΑΓΚΑ ΕΝ 24",
          "id": "dk7_13_24",
          "textualDefinition": "ΠΑΓΚΑ ΕΝ 24, 7η Δημοτική Κοινότητα, Αθήνα",
          "geojson": {
            "type": "Point",
            "coordinates": [
              23.7652897,
              37.9950332
            ]
          }
        },
        {
          "type": "point",
          "name": "ΜΠΑΚΟΥ & ΧΑΤΖΟΠΟΥΛΟΥ",
          "id": "dk7_14_point",
          "textualDefinition": "ΜΠΑΚΟΥ & ΧΑΤΖΟΠΟΥΛΟΥ, 7η Δημοτική Κοινότητα, Αθήνα",
          "geojson": {
            "type": "Point",
            "coordinates": [
              23.7635713,
              37.9998871
            ]
          }
        },
        {
          "type": "point",
          "name": "ΛΑΜΨΑ & ΤΡΙΦΥΛΛΙΑΣ",
          "id": "dk7_15_point",
          "textualDefinition": "ΛΑΜΨΑ & ΤΡΙΦΥΛΛΙΑΣ, 7η Δημοτική Κοινότητα, Αθήνα",
          "geojson": {
            "type": "Point",
            "coordinates": [
              23.7596657,
              37.9933808
            ]
          }
        },
        {
          "type": "point",
          "name": "ΠΗΝΕΛΟΠΗΣ ΔΕΛΤΑ (ΠΛΕΥΡΑ ΠΛΑΤΕΙΑΣ)",
          "id": "dk7_16_point",
          "textualDefinition": "ΠΗΝΕΛΟΠΗΣ ΔΕΛΤΑ (ΠΛΕΥΡΑ ΠΛΑΤΕΙΑΣ), 7η Δημοτική Κοινότητα, Αθήνα",
          "geojson": {
            "type": "Point",
            "coordinates": [
              23.7746693,
              37.9990816
            ]
          }
        },
        {
          "type": "point",
          "name": "ΑΔΡΙΑΝΕΙΟΥ & ΣΙΚΕΛΙΑΝΟΥ",
          "id": "dk7_17_point",
          "textualDefinition": "ΑΔΡΙΑΝΕΙΟΥ & ΣΙΚΕΛΙΑΝΟΥ, 7η Δημοτική Κοινότητα, Αθήνα",
          "geojson": {
            "type": "Point",
            "coordinates": [
              23.751698,
              37.9442429
            ]
          }
        },
        {
          "type": "point",
          "name": "ΕΡΥΘΡΟΥ ΣΤΑΥΡΟΥ 16",
          "id": "dk7_18_16",
          "textualDefinition": "ΕΡΥΘΡΟΥ ΣΤΑΥΡΟΥ 16, 7η Δημοτική Κοινότητα, Αθήνα",
          "geojson": {
            "type": "Point",
            "coordinates": [
              23.7682293,
              37.9923602
            ]
          }
        },
        {
          "type": "point",
          "name": "ΜΥΛΟΠΟΤΑΜΟΥ & ΤΣΟΤΑΚΟΥ",
          "id": "dk7_19_point",
          "textualDefinition": "ΜΥΛΟΠΟΤΑΜΟΥ & ΤΣΟΤΑΚΟΥ, 7η Δημοτική Κοινότητα, Αθήνα",
          "geojson": {
            "type": "Point",
            "coordinates": [
              23.7702355,
              37.9950766
            ]
          }
        },
        {
          "type": "point",
          "name": "ΠΕΡΙΚΛΗ ΣΤΑΥΡΟΥ ΕΝΑΝΤΙ 9 (ΠΕΖ/ΜΙΟ ΠΛΑΤΕΙΑΣ)",
          "id": "dk7_20_9",
          "textualDefinition": "ΠΕΡΙΚΛΗ ΣΤΑΥΡΟΥ ΕΝΑΝΤΙ 9 (ΠΕΖ/ΜΙΟ ΠΛΑΤΕΙΑΣ), 7η Δημοτική Κοινότητα, Αθήνα",
          "geojson": {
            "type": "Point",
            "coordinates": [
              23.7690628,
              37.9980777
            ]
          }
        },
        {
          "type": "point",
          "name": "ΧΑΛΚΗΔΟΝΟΣ & ΜΠΟΝΑΝΟΥ",
          "id": "dk7_21_point",
          "textualDefinition": "ΧΑΛΚΗΔΟΝΟΣ & ΜΠΟΝΑΝΟΥ, 7η Δημοτική Κοινότητα, Αθήνα",
          "geojson": {
            "type": "Point",
            "coordinates": [
              23.762179,
              37.9852098
            ]
          }
        },
        {
          "type": "point",
          "name": "ΛΕΒΑΔΕΙΑΣ 2",
          "id": "dk7_22_2",
          "textualDefinition": "ΛΕΒΑΔΕΙΑΣ 2, 7η Δημοτική Κοινότητα, Αθήνα",
          "geojson": {
            "type": "Point",
            "coordinates": [
              23.7676911,
              37.9852983
            ]
          }
        },
        {
          "type": "point",
          "name": "Μ. ΑΣΙΑΣ 33",
          "id": "dk7_23_33",
          "textualDefinition": "Μ. ΑΣΙΑΣ 33, 7η Δημοτική Κοινότητα, Αθήνα",
          "geojson": null
        },
        {
          "type": "point",
          "name": "ΔΗΜΗΤΡΙΟΥ ΣΟΥΤΣΟΥ 33",
          "id": "dk7_24_33",
          "textualDefinition": "ΔΗΜΗΤΡΙΟΥ ΣΟΥΤΣΟΥ 33, 7η Δημοτική Κοινότητα, Αθήνα",
          "geojson": {
            "type": "Point",
            "coordinates": [
              23.7567801,
              37.9850782
            ]
          }
        },
        {
          "type": "point",
          "name": "ΚΟΡΙΝΘΙΑΣ & ΚΟΡΩΝΕΙΑΣ",
          "id": "dk7_25_point",
          "textualDefinition": "ΚΟΡΙΝΘΙΑΣ & ΚΟΡΩΝΕΙΑΣ, 7η Δημοτική Κοινότητα, Αθήνα",
          "geojson": {
            "type": "Point",
            "coordinates": [
              23.7659418,
              37.9874205
            ]
          }
        },
        {
          "type": "point",
          "name": "Λ. ΑΛΕΞΑΝΔΡΑΣ & ΛΟΥΚΑΡΕΩΣ",
          "id": "dk7_26_point",
          "textualDefinition": "Λ. ΑΛΕΞΑΝΔΡΑΣ & ΛΟΥΚΑΡΕΩΣ, 7η Δημοτική Κοινότητα, Αθήνα",
          "geojson": {
            "type": "Point",
            "coordinates": [
              23.7514913,
              37.9878063
            ]
          }
        },
        {
          "type": "point",
          "name": "Λ. ΑΛΕΞΑΝΔΡΑΣ & ΒΟΥΡΝΑΖΟΥ",
          "id": "dk7_27_point",
          "textualDefinition": "Λ. ΑΛΕΞΑΝΔΡΑΣ & ΒΟΥΡΝΑΖΟΥ, 7η Δημοτική Κοινότητα, Αθήνα",
          "geojson": {
            "type": "Point",
            "coordinates": [
              23.738329,
              37.9908804
            ]
          }
        },
        {
          "type": "point",
          "name": "ΒΟΥΡΝΑΖΟΥ 3",
          "id": "dk7_28_3",
          "textualDefinition": "ΒΟΥΡΝΑΖΟΥ 3, 7η Δημοτική Κοινότητα, Αθήνα",
          "geojson": {
            "type": "Point",
            "coordinates": [
              23.755676,
              37.9855849
            ]
          }
        },
        {
          "type": "point",
          "name": "ΛΟΥΚΑΡΕΩΣ & ΚΑΛΒΟΥ (ΟΠΙΣΘΕΝ ΚΑΔΩΝ Λ. ΑΛΕΞΑΝΔΡΑΣ)",
          "id": "dk7_29_point",
          "textualDefinition": "ΛΟΥΚΑΡΕΩΣ & ΚΑΛΒΟΥ (ΟΠΙΣΘΕΝ ΚΑΔΩΝ Λ. ΑΛΕΞΑΝΔΡΑΣ), 7η Δημοτική Κοινότητα, Αθήνα",
          "geojson": {
            "type": "Point",
            "coordinates": [
              23.738329,
              37.9908804
            ]
          }
        },
        {
          "type": "point",
          "name": "Λ. ΑΛΕΞΑΝΔΡΑΣ 83",
          "id": "dk7_30_83",
          "textualDefinition": "Λ. ΑΛΕΞΑΝΔΡΑΣ 83, 7η Δημοτική Κοινότητα, Αθήνα",
          "geojson": {
            "type": "Point",
            "coordinates": [
              23.7460837,
              37.9895818
            ]
          }
        },
        {
          "type": "point",
          "name": "ΚΟΥΜΑΝΟΥΔΗ 2 & Λ. ΑΛΕΞΑΝΔΡΑΣ",
          "id": "dk7_31_2",
          "textualDefinition": "ΚΟΥΜΑΝΟΥΔΗ 2 & Λ. ΑΛΕΞΑΝΔΡΑΣ, 7η Δημοτική Κοινότητα, Αθήνα",
          "geojson": {
            "type": "Point",
            "coordinates": [
              23.744721,
              37.9900862
            ]
          }
        },
        {
          "type": "point",
          "name": "ΘΕΡΙΑΝΟΥ 14 & ΜΟΥΣΤΟΞΥΔΗ",
          "id": "dk7_32_14",
          "textualDefinition": "ΘΕΡΙΑΝΟΥ 14 & ΜΟΥΣΤΟΞΥΔΗ, 7η Δημοτική Κοινότητα, Αθήνα",
          "geojson": {
            "type": "Point",
            "coordinates": [
              23.74065,
              37.9914937
            ]
          }
        },
        {
          "type": "point",
          "name": "ΟΙΧΑΛΙΑΣ 1 & ΠΛ. ΓΚΥΖΗ",
          "id": "dk7_33_1",
          "textualDefinition": "ΟΙΧΑΛΙΑΣ 1 & ΠΛ. ΓΚΥΖΗ, 7η Δημοτική Κοινότητα, Αθήνα",
          "geojson": {
            "type": "Point",
            "coordinates": [
              23.7507006,
              37.9947911
            ]
          }
        },
        {
          "type": "point",
          "name": "ΠΑΝΟΡΜΟΥ 33 & ΚΕΔΡΗΝΟΥ",
          "id": "dk7_34_33",
          "textualDefinition": "ΠΑΝΟΡΜΟΥ 33 & ΚΕΔΡΗΝΟΥ, 7η Δημοτική Κοινότητα, Αθήνα",
          "geojson": {
            "type": "Point",
            "coordinates": [
              23.7585719,
              37.9903573
            ]
          }
        },
        {
          "type": "point",
          "name": "ΚΕΔΡΗΝΟΥ & ΔΗΜΗΤΣΑΝΑΣ",
          "id": "dk7_35_point",
          "textualDefinition": "ΚΕΔΡΗΝΟΥ & ΔΗΜΗΤΣΑΝΑΣ, 7η Δημοτική Κοινότητα, Αθήνα",
          "geojson": {
            "type": "Point",
            "coordinates": [
              23.7560502,
              37.9894542
            ]
          }
        },
        {
          "type": "point",
          "name": "ΜΟΜΦΕΡΑΤΟΥ & ΔΡΟΣΗ",
          "id": "dk7_36_point",
          "textualDefinition": "ΜΟΜΦΕΡΑΤΟΥ & ΔΡΟΣΗ, 7η Δημοτική Κοινότητα, Αθήνα",
          "geojson": {
            "type": "Point",
            "coordinates": [
              23.7471364,
              37.9900946
            ]
          }
        }
      ]
    }
  ]
}